[
  {
    "osm_id": 266442449,
    "name": "Chemist Shop",
    "address": "Abdul Gaffar Khan Marg, Mehrauli, Mehrauli Tehsil, South Delhi, Delhi, 110070, India",
    "city": "Delhi",
    "state": "Delhi",
    "pincode": "110070",
    "phone": "N/A",
    "latitude": 28.5097958,
    "longitude": 77.1676347,
    "opening_hours": "N/A",
    "brand": "Chemist Shop",
    "data_source": "OpenStreetMap"
  },
  {
    "osm_id": 544510422,
    "name": "Vihan Medico",
    "address": "Vihan Medico, Smt. Ram Pyari Bhalla Marg, Malviya Nagar, Hauz Khas Tehsil, South Delhi, Delhi, 110017, India",
    "city": "Delhi",
    "state": "Delhi",
    "pincode": "110017",
    "phone": "N/A",
    "latitude": 28.534559,
    "longitude": 77.2145726,
    "opening_hours": "N/A",
    "brand": "Independent",
    "data_source": "OpenStreetMap"
  },
  {
    "osm_id": 544510424,
    "name": "Sree Durga Chemist",
    "address": "Sree Durga Chemist, Jahapanah Masjid Lane., Press Enclave, Khirki, Hauz Khas Tehsil, South Delhi, Delhi, 110017, India",
    "city": "Delhi",
    "state": "Delhi",
    "pincode": "110017",
    "phone": "N/A",
    "latitude": 28.5321445,
    "longitude": 77.215931,
    "opening_hours": "N/A",
    "brand": "Chemist",
    "data_source": "OpenStreetMap"
  },
  {
    "osm_id": 712875907,
    "name": "Chemist Shop",
    "address": "Abdul Gaffar Khan Marg, Mehrauli, Mehrauli Tehsil, South Delhi, Delhi, 110070, India",
    "city": "Delhi",
    "state": "Delhi",
    "pincode": "110070",
    "phone": "N/A",
    "latitude": 28.5120076,
    "longitude": 77.1660199,
    "opening_hours": "N/A",
    "brand": "Chemist Shop",
    "data_source": "OpenStreetMap"
  },
  {
    "osm_id": 762031680,
    "name": "Chemist Shop",
    "address": "Auchandi Road, Bawana, Narela Tehsil, North Delhi, Delhi, 110039, India",
    "city": "Delhi",
    "state": "Delhi",
    "pincode": "110039",
    "phone": "N/A",
    "latitude": 28.7981223,
    "longitude": 77.0352125,
    "opening_hours": "N/A",
    "brand": "Chemist Shop",
    "data_source": "OpenStreetMap"
  },
  {
    "osm_id": 762031734,
    "name": "Chemist Shop",
    "address": "Bawana-Kanjhawala Road, Bawana, Narela Tehsil, North Delhi, Delhi, 110039, India",
    "city": "Delhi",
    "state": "Delhi",
    "pincode": "110039",
    "phone": "N/A",
    "latitude": 28.7979343,
    "longitude": 77.0343328,
    "opening_hours": "N/A",
    "brand": "Chemist Shop",
    "data_source": "OpenStreetMap"
  },
  {
    "osm_id": 762031745,
    "name": "Chemist Shop",
    "address": "Bawana Road, Bawana, Narela Tehsil, North Delhi, Delhi, 110039, India",
    "city": "Delhi",
    "state": "Delhi",
    "pincode": "110039",
    "phone": "N/A",
    "latitude": 28.8003599,
    "longitude": 77.0355129,
    "opening_hours": "N/A",
    "brand": "Chemist Shop",
    "data_source": "OpenStreetMap"
  },
  {
    "osm_id": 993722911,
    "name": "Apollo Pharmacy",
    "address": "Apollo Pharmacy, Sector 6 Service Road, Sector 6, Dwarka, South West Delhi, Delhi, 110075, India",
    "city": "Delhi",
    "state": "Delhi",
    "pincode": "110075",
    "phone": "N/A",
    "latitude": 28.588872,
    "longitude": 77.0622043,
    "opening_hours": "N/A",
    "brand": "Apollo Pharmacy",
    "data_source": "OpenStreetMap"
  },
  {
    "osm_id": 993723048,
    "name": "Rai Medico",
    "address": "Rai Medico, Sector 10 Service Road, Sector 10, Dwarka, South West Delhi, Delhi, 110075, India",
    "city": "Delhi",
    "state": "Delhi",
    "pincode": "110075",
    "phone": "N/A",
    "latitude": 28.5892292,
    "longitude": 77.0563222,
    "opening_hours": "N/A",
    "brand": "Independent",
    "data_source": "OpenStreetMap"
  },
  {
    "osm_id": 993723109,
    "name": "98.3",
    "address": "98.3, Sector 10 Service Road, Sector 10, Dwarka, South West Delhi, Delhi, 110075, India",
    "city": "Delhi",
    "state": "Delhi",
    "pincode": "110075",
    "phone": "N/A",
    "latitude": 28.5902843,
    "longitude": 77.0589614,
    "opening_hours": "N/A",
    "brand": "Independent",
    "data_source": "OpenStreetMap"
  },
  {
    "osm_id": 1135146944,
    "name": "Chemist Shop",
    "address": "Hansraj Gupta Marg, Pamposh Enclave, Kalkaji Tehsil, South East Delhi, Delhi, 110019, India",
    "city": "Delhi",
    "state": "Delhi",
    "pincode": "110019",
    "phone": "N/A",
    "latitude": 28.5467274,
    "longitude": 77.243926,
    "opening_hours": "N/A",
    "brand": "Chemist Shop",
    "data_source": "OpenStreetMap"
  },
  {
    "osm_id": 1305481204,
    "name": "Bharat Medical Store",
    "address": "Bharat Medical Store, Mother Dairy Road, Pandav Nagar, Mayur Vihar Tehsil, East Delhi, Delhi, 110091, India",
    "city": "Pandav Nagar, New Delhi",
    "state": "Delhi",
    "pincode": "110091",
    "phone": "N/A",
    "latitude": 28.618614,
    "longitude": 77.2863948,
    "opening_hours": "N/A",
    "brand": "Medical Store",
    "data_source": "OpenStreetMap"
  },
  {
    "osm_id": 1442029382,
    "name": "Chemist Shop",
    "address": "Sujan Mohinder Road, New Friends Colony, Kalkaji Tehsil, South East Delhi, Delhi, 110025, India",
    "city": "Delhi",
    "state": "Delhi",
    "pincode": "110025",
    "phone": "N/A",
    "latitude": 28.5625256,
    "longitude": 77.268987,
    "opening_hours": "N/A",
    "brand": "Chemist Shop",
    "data_source": "OpenStreetMap"
  },
  {
    "osm_id": 1772573817,
    "name": "Chemist Shop",
    "address": "Nangloi Road, Najafgarh, Najafgarh Tehsil, South West Delhi, Delhi, 110043, India",
    "city": "Delhi",
    "state": "Delhi",
    "pincode": "110043",
    "phone": "N/A",
    "latitude": 28.6171539,
    "longitude": 76.9840237,
    "opening_hours": "N/A",
    "brand": "Chemist Shop",
    "data_source": "OpenStreetMap"
  },
  {
    "osm_id": 1776076749,
    "name": "Chemist Shop",
    "address": "Shivaji Marg, Najafgarh, Najafgarh Tehsil, South West Delhi, Delhi, 110043, India",
    "city": "Delhi",
    "state": "Delhi",
    "pincode": "110043",
    "phone": "N/A",
    "latitude": 28.6131192,
    "longitude": 76.9858019,
    "opening_hours": "N/A",
    "brand": "Chemist Shop",
    "data_source": "OpenStreetMap"
  },
  {
    "osm_id": 1776076750,
    "name": "Chemist Shop",
    "address": "Shivaji Marg, Najafgarh, Najafgarh Tehsil, South West Delhi, Delhi, 110043, India",
    "city": "Delhi",
    "state": "Delhi",
    "pincode": "110043",
    "phone": "N/A",
    "latitude": 28.6133994,
    "longitude": 76.9857858,
    "opening_hours": "N/A",
    "brand": "Chemist Shop",
    "data_source": "OpenStreetMap"
  },
  {
    "osm_id": 1776142768,
    "name": "Chemist Shop",
    "address": "Shivaji Marg, Najafgarh, Najafgarh Tehsil, South West Delhi, Delhi, 110043, India",
    "city": "Delhi",
    "state": "Delhi",
    "pincode": "110043",
    "phone": "N/A",
    "latitude": 28.6136443,
    "longitude": 76.9856061,
    "opening_hours": "N/A",
    "brand": "Chemist Shop",
    "data_source": "OpenStreetMap"
  },
  {
    "osm_id": 1776156874,
    "name": "Chemist Shop",
    "address": "Najafgarh Kapashera Road, Najafgarh, Najafgarh Tehsil, South West Delhi, Delhi, 110043, India",
    "city": "Delhi",
    "state": "Delhi",
    "pincode": "110043",
    "phone": "N/A",
    "latitude": 28.6078918,
    "longitude": 76.9854827,
    "opening_hours": "N/A",
    "brand": "Chemist Shop",
    "data_source": "OpenStreetMap"
  },
  {
    "osm_id": 1792704243,
    "name": "Chemist Shop",
    "address": "Najafgarh Dhansa Road, Najafgarh, Najafgarh Tehsil, South West Delhi, Delhi, 110043, India",
    "city": "Delhi",
    "state": "Delhi",
    "pincode": "110043",
    "phone": "N/A",
    "latitude": 28.6169341,
    "longitude": 76.9835652,
    "opening_hours": "N/A",
    "brand": "Chemist Shop",
    "data_source": "OpenStreetMap"
  },
  {
    "osm_id": 1792744361,
    "name": "Chemist Shop",
    "address": "Shivaji Marg, Najafgarh, Najafgarh Tehsil, South West Delhi, Delhi, 110043, India",
    "city": "Delhi",
    "state": "Delhi",
    "pincode": "110043",
    "phone": "N/A",
    "latitude": 28.6133667,
    "longitude": 76.9855341,
    "opening_hours": "N/A",
    "brand": "Chemist Shop",
    "data_source": "OpenStreetMap"
  },
  {
    "osm_id": 1792744390,
    "name": "Chemist Shop",
    "address": "Shivaji Marg, Najafgarh, Najafgarh Tehsil, South West Delhi, Delhi, 110043, India",
    "city": "Delhi",
    "state": "Delhi",
    "pincode": "110043",
    "phone": "N/A",
    "latitude": 28.6124908,
    "longitude": 76.9851934,
    "opening_hours": "N/A",
    "brand": "Chemist Shop",
    "data_source": "OpenStreetMap"
  },
  {
    "osm_id": 1792744391,
    "name": "Chemist Shop",
    "address": "Shivaji Marg, Najafgarh, Najafgarh Tehsil, South West Delhi, Delhi, 110043, India",
    "city": "Delhi",
    "state": "Delhi",
    "pincode": "110043",
    "phone": "N/A",
    "latitude": 28.6126203,
    "longitude": 76.9849896,
    "opening_hours": "N/A",
    "brand": "Chemist Shop",
    "data_source": "OpenStreetMap"
  },
  {
    "osm_id": 1796122217,
    "name": "Chemist Shop",
    "address": "Shiv Mandir Marg, Lajpat Nagar III, Lajpat Nagar II, Defence Colony Tehsil, South East Delhi, Delhi, 110065, India",
    "city": "Delhi",
    "state": "Delhi",
    "pincode": "110065",
    "phone": "N/A",
    "latitude": 28.5668414,
    "longitude": 77.2463633,
    "opening_hours": "N/A",
    "brand": "Chemist Shop",
    "data_source": "OpenStreetMap"
  },
  {
    "osm_id": 1811342193,
    "name": "Chemist Shop",
    "address": "अमर शहीद कैप्टन पृथ्वी सिंह डागर मार्ग, Jaffarpur Kalan, Najafgarh Tehsil, South West Delhi, Delhi, 110073, India",
    "city": "Delhi",
    "state": "Delhi",
    "pincode": "110073",
    "phone": "N/A",
    "latitude": 28.5705987,
    "longitude": 76.9072214,
    "opening_hours": "N/A",
    "brand": "Chemist Shop",
    "data_source": "OpenStreetMap"
  },
  {
    "osm_id": 2474266967,
    "name": "Batra Medicos",
    "address": "Batra Medicos, Pramod Mahajan Marg, Press Enclave, Saket, Hauz Khas Tehsil, South Delhi, Delhi, 110017, India",
    "city": "Delhi",
    "state": "Delhi",
    "pincode": "110017",
    "phone": "+91-11-4100-0391;+91-99993-30009",
    "latitude": 28.5251093,
    "longitude": 77.2057547,
    "opening_hours": "N/A",
    "brand": "Medicos",
    "data_source": "OpenStreetMap"
  },
  {
    "osm_id": 2910617423,
    "name": "Gaurav Medical Store",
    "address": "Gaurav Medical Store, Maharaja Agarsen Marg, Rampuri, Kalkaji, Kalkaji Tehsil, South East Delhi, Delhi, 110076, India",
    "city": "Delhi",
    "state": "Delhi",
    "pincode": "110076",
    "phone": "N/A",
    "latitude": 28.5385149,
    "longitude": 77.2628221,
    "opening_hours": "N/A",
    "brand": "Medical Store",
    "data_source": "OpenStreetMap"
  },
  {
    "osm_id": 2969360764,
    "name": "Mediways Chemist",
    "address": "Mediways Chemist, Sahakarita Marg, Pocket 3, Mayur Vihar Phase 1, Pocket 3, Mayur Vihar Tehsil, East Delhi, Delhi, 110091, India",
    "city": "Delhi",
    "state": "Delhi",
    "pincode": "110091",
    "phone": "N/A",
    "latitude": 28.5976538,
    "longitude": 77.2950244,
    "opening_hours": "24/7",
    "brand": "Chemist",
    "data_source": "OpenStreetMap"
  },
  {
    "osm_id": 2969360765,
    "name": "Arora Pharmacy",
    "address": "Arora Pharmacy, Sahakarita Marg, Pocket 3, Mayur Vihar Phase 1, Pocket 3, Mayur Vihar Tehsil, East Delhi, Delhi, 110091, India",
    "city": "Delhi",
    "state": "Delhi",
    "pincode": "110091",
    "phone": "N/A",
    "latitude": 28.5975656,
    "longitude": 77.2949976,
    "opening_hours": "Mo-Su 08:30-22:00",
    "brand": "Pharmacy",
    "data_source": "OpenStreetMap"
  },
  {
    "osm_id": 4005319497,
    "name": "Anand Chemist",
    "address": "Anand Chemist, Sant Shri Nagpal Marg, Satbari, Saket Tehsil, South Delhi, Delhi, 110074, India",
    "city": "Delhi",
    "state": "Delhi",
    "pincode": "110074",
    "phone": "N/A",
    "latitude": 28.4935774,
    "longitude": 77.1844678,
    "opening_hours": "N/A",
    "brand": "Chemist",
    "data_source": "OpenStreetMap"
  },
  {
    "osm_id": 4076659278,
    "name": "R. S. Medicos",
    "address": "R. S. Medicos, Galli Number 6, Arya Nagar, Sadar Bazar, Kotwali Tehsil, Central Delhi, Delhi, 110055, India",
    "city": "Delhi",
    "state": "Delhi",
    "pincode": "110055",
    "phone": "N/A",
    "latitude": 28.6467075,
    "longitude": 77.2129328,
    "opening_hours": "N/A",
    "brand": "Medicos",
    "data_source": "OpenStreetMap"
  },
  {
    "osm_id": 4076672535,
    "name": "Bhagwati Medicos",
    "address": "Bhagwati Medicos, Arakashan Road, Basti Ara Kashan, Kotwali Tehsil, Central Delhi, Delhi, 110055, India",
    "city": "Delhi",
    "state": "Delhi",
    "pincode": "110055",
    "phone": "N/A",
    "latitude": 28.6467013,
    "longitude": 77.2132438,
    "opening_hours": "N/A",
    "brand": "Medicos",
    "data_source": "OpenStreetMap"
  },
  {
    "osm_id": 4077570689,
    "name": "Chemist Shop",
    "address": "Galli Number 6, Arya Nagar, Sadar Bazar, Kotwali Tehsil, Central Delhi, Delhi, 110055, India",
    "city": "Delhi",
    "state": "Delhi",
    "pincode": "110055",
    "phone": "N/A",
    "latitude": 28.6466897,
    "longitude": 77.2128151,
    "opening_hours": "N/A",
    "brand": "Chemist Shop",
    "data_source": "OpenStreetMap"
  },
  {
    "osm_id": 4352366514,
    "name": "Patanjali Store",
    "address": "Patanjali Store, Guru Harkishan Marg, Shakurpur JJ Colony, Saraswati Vihar Tehsil, North West Delhi, Delhi, 110034, India",
    "city": "Delhi",
    "state": "Delhi",
    "pincode": "110034",
    "phone": "N/A",
    "latitude": 28.6847116,
    "longitude": 77.1301961,
    "opening_hours": "N/A",
    "brand": "Independent",
    "data_source": "OpenStreetMap"
  },
  {
    "osm_id": 4352366529,
    "name": "Chemist Shop",
    "address": "Guru Harkishan Marg, Shakurpur JJ Colony, Saraswati Vihar Tehsil, North West Delhi, Delhi, 110034, India",
    "city": "Delhi",
    "state": "Delhi",
    "pincode": "110034",
    "phone": "N/A",
    "latitude": 28.6851022,
    "longitude": 77.1287772,
    "opening_hours": "N/A",
    "brand": "Chemist Shop",
    "data_source": "OpenStreetMap"
  },
  {
    "osm_id": 4352366534,
    "name": "Chemist Shop",
    "address": "Guru Harkishan Marg, Shakurpur JJ Colony, Saraswati Vihar Tehsil, North West Delhi, Delhi, 110034, India",
    "city": "Delhi",
    "state": "Delhi",
    "pincode": "110034",
    "phone": "N/A",
    "latitude": 28.6856563,
    "longitude": 77.1317974,
    "opening_hours": "N/A",
    "brand": "Chemist Shop",
    "data_source": "OpenStreetMap"
  },
  {
    "osm_id": 4438975397,
    "name": "Chemist Shop",
    "address": "Oriental Apartment Road, Indraprastha Extension, Preet Vihar Tehsil, East Delhi, Delhi, 110092, India",
    "city": "Delhi",
    "state": "Delhi",
    "pincode": "110092",
    "phone": "N/A",
    "latitude": 28.628099,
    "longitude": 77.3089463,
    "opening_hours": "N/A",
    "brand": "Chemist Shop",
    "data_source": "OpenStreetMap"
  },
  {
    "osm_id": 4438975398,
    "name": "Chemist Shop",
    "address": "Oriental Apartment Road, Indraprastha Extension, Preet Vihar Tehsil, East Delhi, Delhi, 110092, India",
    "city": "Delhi",
    "state": "Delhi",
    "pincode": "110092",
    "phone": "N/A",
    "latitude": 28.628039,
    "longitude": 77.309012,
    "opening_hours": "N/A",
    "brand": "Chemist Shop",
    "data_source": "OpenStreetMap"
  },
  {
    "osm_id": 4438975399,
    "name": "Chemist Shop",
    "address": "Oriental Apartment Road, Indraprastha Extension, Preet Vihar Tehsil, East Delhi, Delhi, 110092, India",
    "city": "Delhi",
    "state": "Delhi",
    "pincode": "110092",
    "phone": "N/A",
    "latitude": 28.6279966,
    "longitude": 77.3090375,
    "opening_hours": "N/A",
    "brand": "Chemist Shop",
    "data_source": "OpenStreetMap"
  },
  {
    "osm_id": 4566329195,
    "name": "Amanjot Herbal India",
    "address": "Ranjeet vihar",
    "city": "Delhi",
    "state": "Delhi",
    "pincode": "110041",
    "phone": "9999477432",
    "latitude": 28.654694,
    "longitude": 77.069034,
    "opening_hours": "Mo-Sa 10:00-19:00",
    "brand": "Independent",
    "data_source": "OpenStreetMap"
  },
  {
    "osm_id": 4927146057,
    "name": "Chemist shop",
    "address": "Chemist shop, Aurobindo Marg, Hauz Khas Enclave, Yusuf Sarai, Defence Colony Tehsil, South East Delhi, Delhi, 110029, India",
    "city": "Delhi",
    "state": "Delhi",
    "pincode": "110029",
    "phone": "N/A",
    "latitude": 28.5605891,
    "longitude": 77.2070525,
    "opening_hours": "N/A",
    "brand": "Chemist Shop",
    "data_source": "OpenStreetMap"
  },
  {
    "osm_id": 5116593625,
    "name": "Chemist Shop",
    "address": "صيدليه 1, Aurobindo Marg, Hauz Khas Enclave, Yusuf Sarai, Defence Colony Tehsil, South East Delhi, Delhi, 110029, India",
    "city": "Delhi",
    "state": "Delhi",
    "pincode": "110029",
    "phone": "N/A",
    "latitude": 28.5605958,
    "longitude": 77.2070448,
    "opening_hours": "N/A",
    "brand": "Chemist Shop",
    "data_source": "OpenStreetMap"
  },
  {
    "osm_id": 5136712319,
    "name": "Sawhney Medicos",
    "address": "Chanakyapuri, Malcha Marg",
    "city": "New Delhi",
    "state": "Delhi",
    "pincode": "110021",
    "phone": "N/A",
    "latitude": 28.6023889,
    "longitude": 77.1868863,
    "opening_hours": "N/A",
    "brand": "Medicos",
    "data_source": "OpenStreetMap"
  },
  {
    "osm_id": 5136990526,
    "name": "Anand Medical Stores",
    "address": "Chanakyapuri, Malcha Marg",
    "city": "New Delhi",
    "state": "Delhi",
    "pincode": "110021",
    "phone": "N/A",
    "latitude": 28.6023768,
    "longitude": 77.1869003,
    "opening_hours": "N/A",
    "brand": "Medical Store",
    "data_source": "OpenStreetMap"
  },
  {
    "osm_id": 5245900921,
    "name": "Chemist Shop",
    "address": "Second Avenue, Lodhi Art District, Lodhi Colony, Defence Colony Tehsil, South East Delhi, Delhi, 110003, India",
    "city": "Delhi",
    "state": "Delhi",
    "pincode": "110003",
    "phone": "N/A",
    "latitude": 28.58471,
    "longitude": 77.2203736,
    "opening_hours": "N/A",
    "brand": "Chemist Shop",
    "data_source": "OpenStreetMap"
  },
  {
    "osm_id": 5276887492,
    "name": "Medicine Corner",
    "address": "Mayur Vihar I",
    "city": "Delhi",
    "state": "Delhi",
    "pincode": "",
    "phone": "+91-88263-83788;+91-70428-27354",
    "latitude": 28.611755,
    "longitude": 77.2888525,
    "opening_hours": "N/A",
    "brand": "Independent",
    "data_source": "OpenStreetMap"
  },
  {
    "osm_id": 5301839163,
    "name": "Mahabir Medicos",
    "address": "Mahabir Medicos, Samaspur Road, Pandav Nagar, Mayur Vihar Tehsil, East Delhi, Delhi, 110091, India",
    "city": "Delhi",
    "state": "Delhi",
    "pincode": "110091",
    "phone": "N/A",
    "latitude": 28.615881,
    "longitude": 77.286964,
    "opening_hours": "N/A",
    "brand": "Medicos",
    "data_source": "OpenStreetMap"
  },
  {
    "osm_id": 5342570534,
    "name": "Apollo Pharmacy",
    "address": "Apollo Pharmacy, Azad Hind Fauj Marg, Sector 16, Rohini, Alipur Tehsil, North Delhi, Delhi, 110089, India",
    "city": "Delhi",
    "state": "Delhi",
    "pincode": "110089",
    "phone": "N/A",
    "latitude": 28.7364658,
    "longitude": 77.1209198,
    "opening_hours": "N/A",
    "brand": "Apollo Pharmacy",
    "data_source": "OpenStreetMap"
  },
  {
    "osm_id": 5407772021,
    "name": "Shri Ram Medicos",
    "address": "Shri Ram Medicos, Azad Hind Fauj Marg, Sector 16, Rohini, Alipur Tehsil, North Delhi, Delhi, 110089, India",
    "city": "Delhi",
    "state": "Delhi",
    "pincode": "110089",
    "phone": "N/A",
    "latitude": 28.7394895,
    "longitude": 77.1232675,
    "opening_hours": "N/A",
    "brand": "Medicos",
    "data_source": "OpenStreetMap"
  },
  {
    "osm_id": 5433538363,
    "name": "Apollo Pharmacy",
    "address": "Apollo Pharmacy, Saket Road, Press Enclave, Saket, Hauz Khas Tehsil, South Delhi, Delhi, 110068, India",
    "city": "Delhi",
    "state": "Delhi",
    "pincode": "110068",
    "phone": "N/A",
    "latitude": 28.5220709,
    "longitude": 77.2150996,
    "opening_hours": "N/A",
    "brand": "Apollo Pharmacy",
    "data_source": "OpenStreetMap"
  },
  {
    "osm_id": 5433538543,
    "name": "Fortis Healthworld",
    "address": "Fortis Healthworld, Saket Road, Press Enclave, Saket, Hauz Khas Tehsil, South Delhi, Delhi, 110068, India",
    "city": "Delhi",
    "state": "Delhi",
    "pincode": "110068",
    "phone": "+91-11-4101-0609;+91-11-4101-0608",
    "latitude": 28.5225508,
    "longitude": 77.2145037,
    "opening_hours": "N/A",
    "brand": "Fortis Healthworld",
    "data_source": "OpenStreetMap"
  },
  {
    "osm_id": 5442979845,
    "name": "Yana Medicos",
    "address": "Yana Medicos, Mandir Marg, Said-ul-Ajaib Village, Saket Tehsil, South Delhi, Delhi, 110068, India",
    "city": "Delhi",
    "state": "Delhi",
    "pincode": "110068",
    "phone": "N/A",
    "latitude": 28.5179925,
    "longitude": 77.203512,
    "opening_hours": "N/A",
    "brand": "Medicos",
    "data_source": "OpenStreetMap"
  },
  {
    "osm_id": 5487020905,
    "name": "Care",
    "address": "New Market, Malviya Nagar",
    "city": "Delhi",
    "state": "Delhi",
    "pincode": "",
    "phone": "+91-11-4132-9344;+91-11-4103-6980",
    "latitude": 28.5377121,
    "longitude": 77.2133844,
    "opening_hours": "N/A",
    "brand": "Independent",
    "data_source": "OpenStreetMap"
  },
  {
    "osm_id": 5534281912,
    "name": "Apollo Pharmacy",
    "address": "Apollo Pharmacy, Major Somnath Marg, Block A Yojana VIhar, Savita Vihar, Vivek Vihar Tehsil, Shahdara, Delhi, 110095, India",
    "city": "Delhi",
    "state": "Delhi",
    "pincode": "110095",
    "phone": "N/A",
    "latitude": 28.660058,
    "longitude": 77.317221,
    "opening_hours": "N/A",
    "brand": "Apollo Pharmacy",
    "data_source": "OpenStreetMap"
  },
  {
    "osm_id": 5550775605,
    "name": "Apollo Pharmacy",
    "address": "Apollo Pharmacy, Pandit Trilok Chandra Sharma Marg, Savitri Nagar, Hauz Khas Tehsil, South Delhi, Delhi, 110048, India",
    "city": "Delhi",
    "state": "Delhi",
    "pincode": "110048",
    "phone": "N/A",
    "latitude": 28.5336799,
    "longitude": 77.2311056,
    "opening_hours": "N/A",
    "brand": "Apollo Pharmacy",
    "data_source": "OpenStreetMap"
  },
  {
    "osm_id": 5552867865,
    "name": "Rajdhani Chemist",
    "address": "Rajdhani Chemist, Lal Bahadur Shastri Marg, Pushp Vihar, Hauz Khas Tehsil, South Delhi, Delhi, 110062, India",
    "city": "Delhi",
    "state": "Delhi",
    "pincode": "110062",
    "phone": "N/A",
    "latitude": 28.5161687,
    "longitude": 77.227032,
    "opening_hours": "N/A",
    "brand": "Chemist",
    "data_source": "OpenStreetMap"
  },
  {
    "osm_id": 5586450861,
    "name": "Apollo Pharmacy",
    "address": "Apollo Pharmacy, Hetraj Batra Marg, Malviya Nagar, Hauz Khas Tehsil, South Delhi, Delhi, 110017, India",
    "city": "Delhi",
    "state": "Delhi",
    "pincode": "110017",
    "phone": "N/A",
    "latitude": 28.5365075,
    "longitude": 77.2121964,
    "opening_hours": "N/A",
    "brand": "Apollo Pharmacy",
    "data_source": "OpenStreetMap"
  },
  {
    "osm_id": 5630006583,
    "name": "Shri Kamal Medicos",
    "address": "Shri Kamal Medicos, Pramod Mahajan Marg, Press Enclave, Saket, Hauz Khas Tehsil, South Delhi, Delhi, 110017, India",
    "city": "Delhi",
    "state": "Delhi",
    "pincode": "110017",
    "phone": "+91-11-4104-8478;+91-98102-29009",
    "latitude": 28.5252939,
    "longitude": 77.205683,
    "opening_hours": "N/A",
    "brand": "Medicos",
    "data_source": "OpenStreetMap"
  },
  {
    "osm_id": 5695692633,
    "name": "Kunal Medicos",
    "address": "Kunal Medicos, Kama Koti Marg, Sector 6, Ramakrishna Puram, Vasant Vihar Tehsil, New Delhi, Delhi, 110022, India",
    "city": "Delhi",
    "state": "Delhi",
    "pincode": "110022",
    "phone": "N/A",
    "latitude": 28.5659914,
    "longitude": 77.1765755,
    "opening_hours": "N/A",
    "brand": "Medicos",
    "data_source": "OpenStreetMap"
  },
  {
    "osm_id": 5732544228,
    "name": "Radikha Pharmacy",
    "address": "Radikha Pharmacy, Guru Ravidas Marg, Tughlakabad Extension, Kalkaji Tehsil, South East Delhi, Delhi, 110076, India",
    "city": "Delhi",
    "state": "Delhi",
    "pincode": "110076",
    "phone": "N/A",
    "latitude": 28.5267457,
    "longitude": 77.2572699,
    "opening_hours": "N/A",
    "brand": "Pharmacy",
    "data_source": "OpenStreetMap"
  },
  {
    "osm_id": 5784310847,
    "name": "Apollo Pharmacy",
    "address": "D00",
    "city": "New Delhi",
    "state": "Delhi",
    "pincode": "",
    "phone": "N/A",
    "latitude": 28.6337914,
    "longitude": 77.217038,
    "opening_hours": "24/7",
    "brand": "Apollo Pharmacy",
    "data_source": "OpenStreetMap"
  },
  {
    "osm_id": 5784312301,
    "name": "Medicine House",
    "address": "D00",
    "city": "New Delhi",
    "state": "Delhi",
    "pincode": "110001",
    "phone": "+91-95825-34440;+91-11-2332-1747;+91-11-6590-8784;+91-11-2332-1758",
    "latitude": 28.6338871,
    "longitude": 77.2173285,
    "opening_hours": "N/A",
    "brand": "Independent",
    "data_source": "OpenStreetMap"
  },
  {
    "osm_id": 5784312302,
    "name": "Nath Brothers",
    "address": "Nath Brothers, Radial Road 3, Connaught Place, Chanakya Puri Tehsil, New Delhi, Delhi, 110001, India",
    "city": "Delhi",
    "state": "Delhi",
    "pincode": "110001",
    "phone": "+91-98994-41605;+91-11-4151-6266;+91-11-2332-7284",
    "latitude": 28.6338668,
    "longitude": 77.2173585,
    "opening_hours": "Mo-Sa 10:00-20:30",
    "brand": "Independent",
    "data_source": "OpenStreetMap"
  },
  {
    "osm_id": 5827193784,
    "name": "Maxwell Chemist",
    "address": "Maxwell Chemist, Guru Gobind Singh Marg, Malviya Nagar, Hauz Khas Tehsil, South Delhi, Delhi, 110017, India",
    "city": "Delhi",
    "state": "Delhi",
    "pincode": "110017",
    "phone": "+91-11-4108-2244;+91-11-4978-5545;+91-97174-56632",
    "latitude": 28.5340749,
    "longitude": 77.2093782,
    "opening_hours": "N/A",
    "brand": "Max Healthcare",
    "data_source": "OpenStreetMap"
  },
  {
    "osm_id": 5885381450,
    "name": "S.S. Medicos",
    "address": "S.S. Medicos, 119, Satya Niketan, Moti Bagh, New Delhi, Delhi, 110021, India",
    "city": "Delhi",
    "state": "Delhi",
    "pincode": "110021",
    "phone": "+91-96436-41111",
    "latitude": 28.5880799,
    "longitude": 77.1687667,
    "opening_hours": "N/A",
    "brand": "Medicos",
    "data_source": "OpenStreetMap"
  },
  {
    "osm_id": 5896241638,
    "name": "Shri Krishna Medicos",
    "address": "Shri Krishna Medicos, IGNOU Road, Said-ul-Ajaib Village, Saket Tehsil, South Delhi, Delhi, 110068, India",
    "city": "Delhi",
    "state": "Delhi",
    "pincode": "110068",
    "phone": "N/A",
    "latitude": 28.5148672,
    "longitude": 77.2054037,
    "opening_hours": "N/A",
    "brand": "Medicos",
    "data_source": "OpenStreetMap"
  },
  {
    "osm_id": 5903909960,
    "name": "VS Chemist and Cosmetics",
    "address": "VS Chemist and Cosmetics, IGNOU Road, Said-ul-Ajaib Village, Saket Tehsil, South Delhi, Delhi, 110068, India",
    "city": "Delhi",
    "state": "Delhi",
    "pincode": "110068",
    "phone": "+91-92126-69351;+91-11-4168-8825",
    "latitude": 28.5146574,
    "longitude": 77.2053158,
    "opening_hours": "N/A",
    "brand": "Chemist",
    "data_source": "OpenStreetMap"
  },
  {
    "osm_id": 5906904544,
    "name": "Ritu Medicos",
    "address": "Ritu Medicos, IGNOU Road, Said-ul-Ajaib Village, Saket Tehsil, South Delhi, Delhi, 110068, India",
    "city": "Delhi",
    "state": "Delhi",
    "pincode": "110068",
    "phone": "+91-98182-03538",
    "latitude": 28.5143241,
    "longitude": 77.2051592,
    "opening_hours": "N/A",
    "brand": "Medicos",
    "data_source": "OpenStreetMap"
  },
  {
    "osm_id": 5909689001,
    "name": "Anupam Chemist",
    "address": "IGNOU Road",
    "city": "Delhi",
    "state": "Delhi",
    "pincode": "110068",
    "phone": "+91-95608-15137;+91-99902-83902;+91-11-2953-1633",
    "latitude": 28.5164274,
    "longitude": 77.2059622,
    "opening_hours": "N/A",
    "brand": "Chemist",
    "data_source": "OpenStreetMap"
  },
  {
    "osm_id": 5909689007,
    "name": "Kaushik Medicos",
    "address": "Kaushik Medicos, IGNOU Road, Said-ul-Ajaib Village, Hauz Khas Tehsil, South Delhi, Delhi, 110068, India",
    "city": "Delhi",
    "state": "Delhi",
    "pincode": "110068",
    "phone": "+91-11-4052-7569;+91-98689-97704",
    "latitude": 28.5189379,
    "longitude": 77.2067153,
    "opening_hours": "N/A",
    "brand": "Medicos",
    "data_source": "OpenStreetMap"
  },
  {
    "osm_id": 5960760891,
    "name": "gotam medical stor",
    "address": "gotam medical stor, Late Shri Tirth Ram Sharma Marg, Malviya Nagar, Hauz Khas Tehsil, South Delhi, Delhi, 110017, India",
    "city": "Delhi",
    "state": "Delhi",
    "pincode": "110017",
    "phone": "N/A",
    "latitude": 28.5348606,
    "longitude": 77.2168007,
    "opening_hours": "N/A",
    "brand": "Independent",
    "data_source": "OpenStreetMap"
  },
  {
    "osm_id": 5960767986,
    "name": "Durga chemist",
    "address": "Durga chemist, Path to Khirki Masjid, Khirki, Hauz Khas Tehsil, South Delhi, Delhi, 110017, India",
    "city": "Delhi",
    "state": "Delhi",
    "pincode": "110017",
    "phone": "N/A",
    "latitude": 28.5328634,
    "longitude": 77.2177772,
    "opening_hours": "N/A",
    "brand": "Chemist",
    "data_source": "OpenStreetMap"
  },
  {
    "osm_id": 5960774587,
    "name": "Suhani Medicos and Cosmetics",
    "address": "Suhani Medicos and Cosmetics, Pandit Trilok Chandra Sharma Marg, Savitri Nagar, Khirki, Hauz Khas Tehsil, South Delhi, Delhi, 110017, India",
    "city": "Delhi",
    "state": "Delhi",
    "pincode": "110017",
    "phone": "N/A",
    "latitude": 28.5309146,
    "longitude": 77.2167688,
    "opening_hours": "N/A",
    "brand": "Medicos",
    "data_source": "OpenStreetMap"
  },
  {
    "osm_id": 5960793691,
    "name": "eeshwar",
    "address": "eeshwar, Late Shri Tirth Ram Sharma Marg, Malviya Nagar, Hauz Khas Tehsil, South Delhi, Delhi, 110017, India",
    "city": "Delhi",
    "state": "Delhi",
    "pincode": "110017",
    "phone": "N/A",
    "latitude": 28.5340857,
    "longitude": 77.2170413,
    "opening_hours": "N/A",
    "brand": "Independent",
    "data_source": "OpenStreetMap"
  },
  {
    "osm_id": 5960793696,
    "name": "v.g and co. ",
    "address": "v.g and co. , Late Shri Tirth Ram Sharma Marg, Malviya Nagar, Hauz Khas Tehsil, South Delhi, Delhi, 110017, India",
    "city": "Delhi",
    "state": "Delhi",
    "pincode": "110017",
    "phone": "N/A",
    "latitude": 28.5352006,
    "longitude": 77.2167394,
    "opening_hours": "N/A",
    "brand": "Independent",
    "data_source": "OpenStreetMap"
  },
  {
    "osm_id": 5960810292,
    "name": "medicine point",
    "address": "medicine point, Upper gali, Phase II, Sheikh Sarai, Hauz Khas Tehsil, South Delhi, Delhi, 110017, India",
    "city": "Delhi",
    "state": "Delhi",
    "pincode": "110017",
    "phone": "N/A",
    "latitude": 28.5341134,
    "longitude": 77.219189,
    "opening_hours": "N/A",
    "brand": "Independent",
    "data_source": "OpenStreetMap"
  },
  {
    "osm_id": 5960820192,
    "name": "Chemist Shop",
    "address": "Late Shri Tirth Ram Sharma Marg, Malviya Nagar, Hauz Khas Tehsil, South Delhi, Delhi, 110017, India",
    "city": "Delhi",
    "state": "Delhi",
    "pincode": "110017",
    "phone": "N/A",
    "latitude": 28.5347868,
    "longitude": 77.2168915,
    "opening_hours": "N/A",
    "brand": "Chemist Shop",
    "data_source": "OpenStreetMap"
  },
  {
    "osm_id": 5960821087,
    "name": "health care medicos",
    "address": "health care medicos, Late Shri Tirth Ram Sharma Marg, Malviya Nagar, Hauz Khas Tehsil, South Delhi, Delhi, 110017, India",
    "city": "Delhi",
    "state": "Delhi",
    "pincode": "110017",
    "phone": "N/A",
    "latitude": 28.5347196,
    "longitude": 77.2168741,
    "opening_hours": "N/A",
    "brand": "Medicos",
    "data_source": "OpenStreetMap"
  },
  {
    "osm_id": 5960921987,
    "name": "JKM medecos",
    "address": "JKM medecos, Adarsh Hospital Road, Jagdamba Camp, Hauz Khas Tehsil, South Delhi, Delhi, 110017, India",
    "city": "Delhi",
    "state": "Delhi",
    "pincode": "110017",
    "phone": "N/A",
    "latitude": 28.5344046,
    "longitude": 77.2220785,
    "opening_hours": "N/A",
    "brand": "Independent",
    "data_source": "OpenStreetMap"
  },
  {
    "osm_id": 6053796781,
    "name": "Apollo Pharmacy",
    "address": "Apollo Pharmacy, Dr Ramlal Verma Marg, Lajpat Nagar I, Lajpat Nagar, Defence Colony Tehsil, South East Delhi, Delhi, 110065, India",
    "city": "Delhi",
    "state": "Delhi",
    "pincode": "110065",
    "phone": "N/A",
    "latitude": 28.5752251,
    "longitude": 77.2415558,
    "opening_hours": "Mo-Su 07:00-23:00",
    "brand": "Apollo Pharmacy",
    "data_source": "OpenStreetMap"
  },
  {
    "osm_id": 6064335435,
    "name": "Batra Medicos",
    "address": "Batra Medicos, Guru Gobind Singh Marg, Malviya Nagar, Hauz Khas Tehsil, South Delhi, Delhi, 110017, India",
    "city": "Delhi",
    "state": "Delhi",
    "pincode": "110017",
    "phone": "N/A",
    "latitude": 28.5336885,
    "longitude": 77.2087722,
    "opening_hours": "N/A",
    "brand": "Medicos",
    "data_source": "OpenStreetMap"
  },
  {
    "osm_id": 6076216285,
    "name": "Jain Medicos",
    "address": "Chotu Ram Marg, Sector 6",
    "city": "Delhi",
    "state": "Delhi",
    "pincode": "",
    "phone": "N/A",
    "latitude": 28.7135177,
    "longitude": 77.1095424,
    "opening_hours": "N/A",
    "brand": "Medicos",
    "data_source": "OpenStreetMap"
  },
  {
    "osm_id": 6112993598,
    "name": "Medicine Care",
    "address": "Medicine Care, Shiv Mandir Marg, Lajpat Nagar III, Lajpat Nagar II, Defence Colony Tehsil, South East Delhi, Delhi, 110065, India",
    "city": "Delhi",
    "state": "Delhi",
    "pincode": "110065",
    "phone": "N/A",
    "latitude": 28.5679314,
    "longitude": 77.2473791,
    "opening_hours": "N/A",
    "brand": "Independent",
    "data_source": "OpenStreetMap"
  },
  {
    "osm_id": 6112993599,
    "name": "Mahesh Chemists",
    "address": "Mahesh Chemists, Shiv Mandir Marg, Lajpat Nagar III, Lajpat Nagar II, Defence Colony Tehsil, South East Delhi, Delhi, 110065, India",
    "city": "Delhi",
    "state": "Delhi",
    "pincode": "110065",
    "phone": "N/A",
    "latitude": 28.567774,
    "longitude": 77.2472784,
    "opening_hours": "N/A",
    "brand": "Chemist",
    "data_source": "OpenStreetMap"
  },
  {
    "osm_id": 6115748986,
    "name": "Maa Nav Durga Medicos",
    "address": "Neb Sarai",
    "city": "Delhi",
    "state": "Delhi",
    "pincode": "",
    "phone": "+91-99102-25565;+91-93108-70896",
    "latitude": 28.5075171,
    "longitude": 77.1995949,
    "opening_hours": "N/A",
    "brand": "Medicos",
    "data_source": "OpenStreetMap"
  },
  {
    "osm_id": 6120508692,
    "name": "All India Medicos",
    "address": "All India Medicos, Aurobindo Marg, Yusuf Sarai Market, Yusuf Sarai, Defence Colony Tehsil, South East Delhi, Delhi, 110029, India",
    "city": "Delhi",
    "state": "Delhi",
    "pincode": "110029",
    "phone": "+91-11-4666-5301;+91-11-4666-5302;+91-11-4666-5303;+91-11-2658-9896;+91-11-2658-8210",
    "latitude": 28.5618572,
    "longitude": 77.2076233,
    "opening_hours": "24/7",
    "brand": "Medicos",
    "data_source": "OpenStreetMap"
  },
  {
    "osm_id": 6168884755,
    "name": "All India Chemist",
    "address": "IGNOU Road",
    "city": "Delhi",
    "state": "Delhi",
    "pincode": "",
    "phone": "+91-99112-11002;+91-97170-21913",
    "latitude": 28.5074226,
    "longitude": 77.1998817,
    "opening_hours": "Mo-Su 09:00-22:30",
    "brand": "Chemist",
    "data_source": "OpenStreetMap"
  },
  {
    "osm_id": 6217178329,
    "name": "Unique Chemist",
    "address": "Lajpat Nagar II, Veer Savarkar Marg",
    "city": "Delhi",
    "state": "Delhi",
    "pincode": "110024",
    "phone": "+91 11 2984 0002;+91 99108 10198",
    "latitude": 28.5680128,
    "longitude": 77.2459237,
    "opening_hours": "Mo-Sa 09:30-22:00; Su 09:30-18:00",
    "brand": "Chemist",
    "data_source": "OpenStreetMap"
  },
  {
    "osm_id": 6221536872,
    "name": "All India Chemist",
    "address": "All India Chemist, Abdul Gaffar Khan Marg, Masoodpur, Vasant Kunj, Vasant Vihar Tehsil, New Delhi, Delhi, 110070, India",
    "city": "Delhi",
    "state": "Delhi",
    "pincode": "110070",
    "phone": "+91-11-2612-3037",
    "latitude": 28.5251396,
    "longitude": 77.1551331,
    "opening_hours": "N/A",
    "brand": "Chemist",
    "data_source": "OpenStreetMap"
  },
  {
    "osm_id": 6282682554,
    "name": "Healthy Life Pharmacy",
    "address": "Healthy Life Pharmacy, Mahatma Gandhi Marg, Lajpat Nagar III, Lajpat Nagar, Defence Colony Tehsil, South East Delhi, Delhi, 110065, India",
    "city": "Delhi",
    "state": "Delhi",
    "pincode": "110065",
    "phone": "+91-99901-68275;+91-88022-41708",
    "latitude": 28.566497,
    "longitude": 77.2484873,
    "opening_hours": "Mo-Su 10:00-10:00",
    "brand": "Pharmacy",
    "data_source": "OpenStreetMap"
  },
  {
    "osm_id": 6309157277,
    "name": "Gupta Brothers Druggist Private Limited",
    "address": "Gupta Brothers Druggist Private Limited, Abdul Gaffar Khan Marg, Mahipalpur, Vasant Vihar Tehsil, New Delhi, Delhi, 110037, India",
    "city": "Delhi",
    "state": "Delhi",
    "pincode": "110037",
    "phone": "N/A",
    "latitude": 28.5464347,
    "longitude": 77.1246175,
    "opening_hours": "N/A",
    "brand": "Independent",
    "data_source": "OpenStreetMap"
  },
  {
    "osm_id": 6310354764,
    "name": "Shri Ram Medicos",
    "address": "Paryavaran Complex",
    "city": "Delhi",
    "state": "Delhi",
    "pincode": "110030",
    "phone": "+91-11-4166-4483;+91-11-4166-4484;+91-98918-09852",
    "latitude": 28.5143312,
    "longitude": 77.2046819,
    "opening_hours": "Mo-Su 09:00-22:30",
    "brand": "Medicos",
    "data_source": "OpenStreetMap"
  },
  {
    "osm_id": 6411389716,
    "name": "Chemist Shop",
    "address": "Shaheed Jeet Singh Marg, Hauz Khas, Hauz Khas Tehsil, South Delhi, Delhi, 110067, India",
    "city": "Delhi",
    "state": "Delhi",
    "pincode": "110067",
    "phone": "N/A",
    "latitude": 28.5407863,
    "longitude": 77.1850008,
    "opening_hours": "N/A",
    "brand": "Chemist Shop",
    "data_source": "OpenStreetMap"
  },
  {
    "osm_id": 6411418990,
    "name": "Aggarwal Medical Store",
    "address": "Aggarwal Medical Store, Sant Shri Nagpal Marg, Satbari, Saket Tehsil, South Delhi, Delhi, 110074, India",
    "city": "Delhi",
    "state": "Delhi",
    "pincode": "110074",
    "phone": "N/A",
    "latitude": 28.5013209,
    "longitude": 77.1828519,
    "opening_hours": "N/A",
    "brand": "Medical Store",
    "data_source": "OpenStreetMap"
  },
  {
    "osm_id": 6411571299,
    "name": "Chemist Shop",
    "address": "Sant Shri Nagpal Marg, Harswaroop Colony, Fatehpur Beri, Saket Tehsil, South Delhi, Delhi, 110074, India",
    "city": "Delhi",
    "state": "Delhi",
    "pincode": "110074",
    "phone": "N/A",
    "latitude": 28.4571837,
    "longitude": 77.1838628,
    "opening_hours": "N/A",
    "brand": "Chemist Shop",
    "data_source": "OpenStreetMap"
  },
  {
    "osm_id": 6458623082,
    "name": "Apollo Pharmacy",
    "address": "Apollo Pharmacy, Hansraj Sethi Marg, Rampuri, Kalkaji, Kalkaji Tehsil, South East Delhi, Delhi, 110019, India",
    "city": "Delhi",
    "state": "Delhi",
    "pincode": "110019",
    "phone": "N/A",
    "latitude": 28.5422098,
    "longitude": 77.2532333,
    "opening_hours": "N/A",
    "brand": "Apollo Pharmacy",
    "data_source": "OpenStreetMap"
  },
  {
    "osm_id": 6458625086,
    "name": "Krishna Medicos",
    "address": "Krishna Medicos, Hansraj Sethi Marg, Rampuri, Kalkaji, Kalkaji Tehsil, South East Delhi, Delhi, 110019, India",
    "city": "Delhi",
    "state": "Delhi",
    "pincode": "110019",
    "phone": "+91-98189-20410;+91-11-4100-2560",
    "latitude": 28.5422366,
    "longitude": 77.2531203,
    "opening_hours": "N/A",
    "brand": "Medicos",
    "data_source": "OpenStreetMap"
  },
  {
    "osm_id": 6459196251,
    "name": "98.4°",
    "address": "98.4°, Hansraj Sethi Marg, Rampuri, Kalkaji, Kalkaji Tehsil, South East Delhi, Delhi, 110019, India",
    "city": "Delhi",
    "state": "Delhi",
    "pincode": "110019",
    "phone": "N/A",
    "latitude": 28.5406322,
    "longitude": 77.2573949,
    "opening_hours": "N/A",
    "brand": "Independent",
    "data_source": "OpenStreetMap"
  },
  {
    "osm_id": 6459315290,
    "name": "Sanjivani",
    "address": "Sanjivani, Mehrauli Badarpur Road, Khanpur, Hauz Khas Tehsil, South Delhi, Delhi, 110062, India",
    "city": "Delhi",
    "state": "Delhi",
    "pincode": "110062",
    "phone": "N/A",
    "latitude": 28.5138568,
    "longitude": 77.23383,
    "opening_hours": "24/7",
    "brand": "Independent",
    "data_source": "OpenStreetMap"
  },
  {
    "osm_id": 6490310060,
    "name": "Chemist Shop",
    "address": "Raja Ram Marg, Madangir, Ambedkar Nagar, Hauz Khas Tehsil, South Delhi, Delhi, 110062, India",
    "city": "Delhi",
    "state": "Delhi",
    "pincode": "110062",
    "phone": "N/A",
    "latitude": 28.5233637,
    "longitude": 77.2312756,
    "opening_hours": "N/A",
    "brand": "Chemist Shop",
    "data_source": "OpenStreetMap"
  },
  {
    "osm_id": 6620973565,
    "name": "Baba Nanak Medicos",
    "address": "Baba Nanak Medicos, Aurobindo Marg, Adchini, Hauz Khas Tehsil, South Delhi, Delhi, 110016, India",
    "city": "Delhi",
    "state": "Delhi",
    "pincode": "110016",
    "phone": "N/A",
    "latitude": 28.5381556,
    "longitude": 77.198593,
    "opening_hours": "N/A",
    "brand": "Medicos",
    "data_source": "OpenStreetMap"
  },
  {
    "osm_id": 6640868219,
    "name": "Apollo Pharmacy",
    "address": "Apollo Pharmacy, Sri Ramsharanam Marg, Lajpat Nagar III, Lajpat Nagar, Defence Colony Tehsil, South East Delhi, Delhi, 110065, India",
    "city": "Delhi",
    "state": "Delhi",
    "pincode": "110065",
    "phone": "N/A",
    "latitude": 28.5691403,
    "longitude": 77.2376172,
    "opening_hours": "Mo-Su 08:00-23:00",
    "brand": "Apollo Pharmacy",
    "data_source": "OpenStreetMap"
  },
  {
    "osm_id": 6785996658,
    "name": "Kunal Medicos",
    "address": "Humayunpur Village, Chaudhary Harsukh Marg",
    "city": "Delhi",
    "state": "Delhi",
    "pincode": "110029",
    "phone": "+91-93508-27420",
    "latitude": 28.561458,
    "longitude": 77.1939495,
    "opening_hours": "N/A",
    "brand": "Medicos",
    "data_source": "OpenStreetMap"
  },
  {
    "osm_id": 6817191936,
    "name": "Chemist Shop",
    "address": "Vikas Marg, Vir Savarkar Block, Shakarpur, Gandhi Nagar Tehsil, East Delhi, Delhi, 110031, India",
    "city": "Delhi",
    "state": "Delhi",
    "pincode": "110031",
    "phone": "N/A",
    "latitude": 28.6327625,
    "longitude": 77.2805113,
    "opening_hours": "N/A",
    "brand": "Chemist Shop",
    "data_source": "OpenStreetMap"
  },
  {
    "osm_id": 6817191952,
    "name": "JMD Medical Store",
    "address": "JMD Medical Store, Vikas Marg, Vir Savarkar Block, Shakarpur, Gandhi Nagar Tehsil, East Delhi, Delhi, 110031, India",
    "city": "Delhi",
    "state": "Delhi",
    "pincode": "110031",
    "phone": "N/A",
    "latitude": 28.6327144,
    "longitude": 77.2804575,
    "opening_hours": "24/7",
    "brand": "Medical Store",
    "data_source": "OpenStreetMap"
  },
  {
    "osm_id": 6833896550,
    "name": "SK Medicos",
    "address": "Kishangarh",
    "city": "Delhi",
    "state": "Delhi",
    "pincode": "110070",
    "phone": "+91-98915-53777",
    "latitude": 28.5221317,
    "longitude": 77.1689977,
    "opening_hours": "Mo-Su",
    "brand": "Medicos",
    "data_source": "OpenStreetMap"
  },
  {
    "osm_id": 6845188086,
    "name": "NG Pharmacy",
    "address": "NG Pharmacy, IGNOU Road, Neb Sarai, Saket Tehsil, South Delhi, Delhi, 110068, India",
    "city": "Delhi",
    "state": "Delhi",
    "pincode": "110068",
    "phone": "+91-75310-37603;+91-99588-44742",
    "latitude": 28.5097146,
    "longitude": 77.2016392,
    "opening_hours": "N/A",
    "brand": "Pharmacy",
    "data_source": "OpenStreetMap"
  },
  {
    "osm_id": 6859268985,
    "name": "Chemist Shop",
    "address": "Josip Broz Tito Marg, Hauz Khas Tehsil, South Delhi, Delhi, 110048, India",
    "city": "Delhi",
    "state": "Delhi",
    "pincode": "110048",
    "phone": "N/A",
    "latitude": 28.5463443,
    "longitude": 77.2304009,
    "opening_hours": "N/A",
    "brand": "Chemist Shop",
    "data_source": "OpenStreetMap"
  },
  {
    "osm_id": 6901788401,
    "name": "Chemist Shop",
    "address": "Alaknanda Road, Godavari Apartments, Alaknanda, Kalkaji Tehsil, South East Delhi, Delhi, 110019, India",
    "city": "Delhi",
    "state": "Delhi",
    "pincode": "110019",
    "phone": "N/A",
    "latitude": 28.5253273,
    "longitude": 77.2537965,
    "opening_hours": "N/A",
    "brand": "Chemist Shop",
    "data_source": "OpenStreetMap"
  },
  {
    "osm_id": 6901790926,
    "name": "Chemist Shop",
    "address": "Alaknanda Road, Godavari Apartments, Alaknanda, Kalkaji Tehsil, South East Delhi, Delhi, 110019, India",
    "city": "Delhi",
    "state": "Delhi",
    "pincode": "110019",
    "phone": "N/A",
    "latitude": 28.524544,
    "longitude": 77.2544258,
    "opening_hours": "N/A",
    "brand": "Chemist Shop",
    "data_source": "OpenStreetMap"
  },
  {
    "osm_id": 6911979912,
    "name": "Aggarwal Sons Medical Mart",
    "address": "Aggarwal Sons Medical Mart, Acharya Shri Tulsi Marg, Mehrauli Tehsil, South Delhi, Delhi, 110030, India",
    "city": "Delhi",
    "state": "Delhi",
    "pincode": "110030",
    "phone": "N/A",
    "latitude": 28.5071089,
    "longitude": 77.1764903,
    "opening_hours": "N/A",
    "brand": "Independent",
    "data_source": "OpenStreetMap"
  },
  {
    "osm_id": 7138493174,
    "name": "Delhi Government Dispensary",
    "address": "Delhi Government Dispensary, Nala Road, Dwarka, South West Delhi, Delhi, 110075, India",
    "city": "Delhi",
    "state": "Delhi",
    "pincode": "110075",
    "phone": "+91 11 2508 2913",
    "latitude": 28.600973,
    "longitude": 77.068381,
    "opening_hours": "N/A",
    "brand": "Independent",
    "data_source": "OpenStreetMap"
  },
  {
    "osm_id": 7146792805,
    "name": "Nav Durga Medicos",
    "address": "Neb Sarai",
    "city": "Delhi",
    "state": "Delhi",
    "pincode": "110068",
    "phone": "+91 11 3258 5220;+91 11 2953 1518;+91 98919 45753",
    "latitude": 28.5071922,
    "longitude": 77.1999808,
    "opening_hours": "N/A",
    "brand": "Medicos",
    "data_source": "OpenStreetMap"
  },
  {
    "osm_id": 7280004312,
    "name": "Vishal Medical Store",
    "address": "Vishal Medical Store, Mother Dairy Road, Shakarpur, Gandhi Nagar Tehsil, East Delhi, Delhi, 110031, India",
    "city": "Delhi",
    "state": "Delhi",
    "pincode": "110031",
    "phone": "N/A",
    "latitude": 28.6271918,
    "longitude": 77.2795974,
    "opening_hours": "N/A",
    "brand": "Medical Store",
    "data_source": "OpenStreetMap"
  },
  {
    "osm_id": 7280004314,
    "name": "Mediways Chemist",
    "address": "Mediways Chemist, Mandir Road, Shakarpur, Gandhi Nagar Tehsil, East Delhi, Delhi, 110091, India",
    "city": "Delhi",
    "state": "Delhi",
    "pincode": "110091",
    "phone": "N/A",
    "latitude": 28.6270711,
    "longitude": 77.2797514,
    "opening_hours": "N/A",
    "brand": "Chemist",
    "data_source": "OpenStreetMap"
  },
  {
    "osm_id": 7389579740,
    "name": "chemist shop",
    "address": "chemist shop, Outram Line, Outram Lines, Model Town Tehsil, North Delhi, Delhi, 110009, India",
    "city": "Delhi",
    "state": "Delhi",
    "pincode": "110009",
    "phone": "N/A",
    "latitude": 28.702617,
    "longitude": 77.2075501,
    "opening_hours": "N/A",
    "brand": "Chemist Shop",
    "data_source": "OpenStreetMap"
  },
  {
    "osm_id": 7389802099,
    "name": "chemist",
    "address": "chemist, Banda Bahadur Marg, Mukherjee Nagar, Model Town Tehsil, North Delhi, Delhi, 110009, India",
    "city": "Delhi",
    "state": "Delhi",
    "pincode": "110009",
    "phone": "N/A",
    "latitude": 28.7134808,
    "longitude": 77.2164365,
    "opening_hours": "N/A",
    "brand": "Chemist",
    "data_source": "OpenStreetMap"
  },
  {
    "osm_id": 7813122579,
    "name": "Kailash Chemists",
    "address": "Kailash Chemists, Oriental Apartment Road, Indraprastha Extension, Preet Vihar Tehsil, East Delhi, Delhi, 110092, India",
    "city": "Delhi",
    "state": "Delhi",
    "pincode": "110092",
    "phone": "+91-11-2272-6617;+91-95996-96787",
    "latitude": 28.628125,
    "longitude": 77.3086876,
    "opening_hours": "N/A",
    "brand": "Chemist",
    "data_source": "OpenStreetMap"
  },
  {
    "osm_id": 7945646285,
    "name": "Chemist Shop",
    "address": "C-7, Vasant Vihar, New Delhi, Delhi, 110057, India",
    "city": "Delhi",
    "state": "Delhi",
    "pincode": "110057",
    "phone": "N/A",
    "latitude": 28.5677998,
    "longitude": 77.1589114,
    "opening_hours": "N/A",
    "brand": "Chemist Shop",
    "data_source": "OpenStreetMap"
  },
  {
    "osm_id": 7945646286,
    "name": "Chemist Shop",
    "address": "Paschimi Marg, Vasant Vihar, New Delhi, Delhi, 110057, India",
    "city": "Delhi",
    "state": "Delhi",
    "pincode": "110057",
    "phone": "N/A",
    "latitude": 28.5678793,
    "longitude": 77.1597961,
    "opening_hours": "N/A",
    "brand": "Chemist Shop",
    "data_source": "OpenStreetMap"
  },
  {
    "osm_id": 8065767897,
    "name": "RK Medical Store",
    "address": "Pandav Nagar",
    "city": "Delhi",
    "state": "Delhi",
    "pincode": "110092",
    "phone": "+91-11-4318-9000;+91-11-4318-9099",
    "latitude": 28.6179549,
    "longitude": 77.2867473,
    "opening_hours": "24/7",
    "brand": "Medical Store",
    "data_source": "OpenStreetMap"
  },
  {
    "osm_id": 8163204980,
    "name": "Life Care Medicos",
    "address": "Mandawali Fazalpur",
    "city": "Delhi",
    "state": "Delhi",
    "pincode": "110092",
    "phone": "+91 11 2247 9788;+91 98118 96443",
    "latitude": 28.6226447,
    "longitude": 77.2904912,
    "opening_hours": "N/A",
    "brand": "Medicos",
    "data_source": "OpenStreetMap"
  },
  {
    "osm_id": 8536155698,
    "name": "Jan Aushadhi",
    "address": "Block G, Dilshad Extension 1, Dilshad Colony, Seemapuri",
    "city": "Delhi",
    "state": "Delhi",
    "pincode": "",
    "phone": "9818437123",
    "latitude": 28.6821578,
    "longitude": 77.3304628,
    "opening_hours": "Mo-Sa 09:00-17:00",
    "brand": "Independent",
    "data_source": "OpenStreetMap"
  },
  {
    "osm_id": 8880000362,
    "name": "Girdhar Garden Pharmacy",
    "address": "Girdhar Garden Pharmacy, Sahakarita Marg, Pocket 3, Mayur Vihar Phase 1, Pocket 3, Mayur Vihar Tehsil, East Delhi, Delhi, 110091, India",
    "city": "Delhi",
    "state": "Delhi",
    "pincode": "110091",
    "phone": "N/A",
    "latitude": 28.5976068,
    "longitude": 77.294962,
    "opening_hours": "08:30-10:00",
    "brand": "Pharmacy",
    "data_source": "OpenStreetMap"
  },
  {
    "osm_id": 8943610678,
    "name": "Globe Medicos",
    "address": "Kailash Colony Market",
    "city": "Delhi",
    "state": "Delhi",
    "pincode": "",
    "phone": "+91 11 4173 1084;+91 11 2924 5904;+91-99535-86583",
    "latitude": 28.5525647,
    "longitude": 77.2419931,
    "opening_hours": "N/A",
    "brand": "Medicos",
    "data_source": "OpenStreetMap"
  },
  {
    "osm_id": 8984990861,
    "name": "Manoj Chemist",
    "address": "Manoj Chemist, Swami Narayan Marg, Ashok Vihar - III, Saraswati Vihar Tehsil, North West Delhi, Delhi, 110052, India",
    "city": "Delhi",
    "state": "Delhi",
    "pincode": "110052",
    "phone": "N/A",
    "latitude": 28.6871104,
    "longitude": 77.18348,
    "opening_hours": "N/A",
    "brand": "Chemist",
    "data_source": "OpenStreetMap"
  },
  {
    "osm_id": 8985175435,
    "name": "Chemist Shop",
    "address": "Ashok Vihar Road, Ashok Vihar - IV, Saraswati Vihar Tehsil, North West Delhi, Delhi, 110052, India",
    "city": "Delhi",
    "state": "Delhi",
    "pincode": "110052",
    "phone": "N/A",
    "latitude": 28.6835329,
    "longitude": 77.1716311,
    "opening_hours": "N/A",
    "brand": "Chemist Shop",
    "data_source": "OpenStreetMap"
  },
  {
    "osm_id": 8987572729,
    "name": "Chemist Shop",
    "address": "Satyawati Marg, New Lines, Shakti Nagar, Civil Lines Tehsil, Central Delhi, Delhi, 110007, India",
    "city": "Delhi",
    "state": "Delhi",
    "pincode": "110007",
    "phone": "N/A",
    "latitude": 28.6811314,
    "longitude": 77.1978529,
    "opening_hours": "N/A",
    "brand": "Chemist Shop",
    "data_source": "OpenStreetMap"
  },
  {
    "osm_id": 8987572730,
    "name": "Chemist Shop",
    "address": "Satyawati Marg, New Lines, Shakti Nagar, Civil Lines Tehsil, Central Delhi, Delhi, 110007, India",
    "city": "Delhi",
    "state": "Delhi",
    "pincode": "110007",
    "phone": "N/A",
    "latitude": 28.6811125,
    "longitude": 77.1977943,
    "opening_hours": "N/A",
    "brand": "Chemist Shop",
    "data_source": "OpenStreetMap"
  },
  {
    "osm_id": 9104868773,
    "name": "Shri Banke Bihari Medical Store",
    "address": "Shri Banke Bihari Medical Store, Zafar Mahal Road, Mehrauli, Mehrauli Tehsil, South Delhi, Delhi, 110030, India",
    "city": "Delhi",
    "state": "Delhi",
    "pincode": "110030",
    "phone": "N/A",
    "latitude": 28.5198585,
    "longitude": 77.1796985,
    "opening_hours": "N/A",
    "brand": "Medical Store",
    "data_source": "OpenStreetMap"
  },
  {
    "osm_id": 9104868777,
    "name": "Akshay Medicos",
    "address": "Akshay Medicos, Zafar Mahal Road, Mehrauli, Mehrauli Tehsil, South Delhi, Delhi, 110030, India",
    "city": "Delhi",
    "state": "Delhi",
    "pincode": "110030",
    "phone": "+91-93102-82346;+91-82351-84405",
    "latitude": 28.5201233,
    "longitude": 77.1796793,
    "opening_hours": "N/A",
    "brand": "Medicos",
    "data_source": "OpenStreetMap"
  },
  {
    "osm_id": 9167498263,
    "name": "Neethi Medical Store",
    "address": "Rajpur Khurd Road",
    "city": "New Delhi",
    "state": "Delhi",
    "pincode": "110068",
    "phone": "N/A",
    "latitude": 28.4953283,
    "longitude": 77.189388,
    "opening_hours": "Mo-Su 09:00-21:00",
    "brand": "Medical Store",
    "data_source": "OpenStreetMap"
  },
  {
    "osm_id": 9465673757,
    "name": "Preet Medicos",
    "address": "Preet Medicos, Hans Raj Gupta Marg, Greater Kailash I, Kalkaji Tehsil, South East Delhi, Delhi, 110048, India",
    "city": "Delhi",
    "state": "Delhi",
    "pincode": "110048",
    "phone": "+91-89018-41010;+91-89018-51010",
    "latitude": 28.5498295,
    "longitude": 77.23338,
    "opening_hours": "N/A",
    "brand": "Medicos",
    "data_source": "OpenStreetMap"
  },
  {
    "osm_id": 9485904210,
    "name": "SCI Pharmacy",
    "address": "SCI Pharmacy, 21, Hans Raj Gupta Marg, Greater Kailash I, Kalkaji Tehsil, South East Delhi, Delhi, 110048, India",
    "city": "Delhi",
    "state": "Delhi",
    "pincode": "110048",
    "phone": "+91-11-4608-2279",
    "latitude": 28.549539,
    "longitude": 77.2337581,
    "opening_hours": "N/A",
    "brand": "Pharmacy",
    "data_source": "OpenStreetMap"
  },
  {
    "osm_id": 9504594657,
    "name": "All India Medicos",
    "address": "All India Medicos, Aurobindo Marg, Yusuf Sarai Market, Yusuf Sarai, Defence Colony Tehsil, South East Delhi, Delhi, 110029, India",
    "city": "Delhi",
    "state": "Delhi",
    "pincode": "110029",
    "phone": "+91-11-4666-5301;+91-11-4666-5302;+91-11-4666-5303;+91-11-2658-9896;+91-11-2658-8210",
    "latitude": 28.562112,
    "longitude": 77.2077732,
    "opening_hours": "24/7",
    "brand": "Medicos",
    "data_source": "OpenStreetMap"
  },
  {
    "osm_id": 9562708320,
    "name": "Bade Miyan & Sons Medicos",
    "address": "Gali #5",
    "city": "Delhi",
    "state": "Delhi",
    "pincode": "",
    "phone": "N/A",
    "latitude": 28.6232345,
    "longitude": 77.2948536,
    "opening_hours": "N/A",
    "brand": "Medicos",
    "data_source": "OpenStreetMap"
  },
  {
    "osm_id": 9641236116,
    "name": "Umed Medicos",
    "address": "Mohammadi Chowk, Mandawali Fazalpur",
    "city": "Delhi",
    "state": "Delhi",
    "pincode": "110092",
    "phone": "+91-80103-77780",
    "latitude": 28.6226682,
    "longitude": 77.2903115,
    "opening_hours": "Mo-Su 09:00-15:00, 17:00-23:00",
    "brand": "Medicos",
    "data_source": "OpenStreetMap"
  },
  {
    "osm_id": 9958195063,
    "name": "Ambey Medical and Opticals",
    "address": "Ambey Medical and Opticals, Centumu Road, Lajpat Nagar III, Lajpat Nagar, Defence Colony Tehsil, South East Delhi, Delhi, 110065, India",
    "city": "Delhi",
    "state": "Delhi",
    "pincode": "110065",
    "phone": "N/A",
    "latitude": 28.5678347,
    "longitude": 77.2371014,
    "opening_hours": "N/A",
    "brand": "Independent",
    "data_source": "OpenStreetMap"
  },
  {
    "osm_id": 10015351974,
    "name": "BRIJWASI MEDICAL",
    "address": "MAUJPUR MAIN ROAD",
    "city": "new delhi",
    "state": "Delhi",
    "pincode": "110053",
    "phone": "N/A",
    "latitude": 28.6898065,
    "longitude": 77.2714672,
    "opening_hours": "Mo-Su 10:00-22:00",
    "brand": "Independent",
    "data_source": "OpenStreetMap"
  },
  {
    "osm_id": 10015351985,
    "name": "AGARWAL MEDICAL STORE",
    "address": "MAIN ROAD MAUJPUR",
    "city": "new delhi",
    "state": "Delhi",
    "pincode": "110053",
    "phone": "N/A",
    "latitude": 28.6899698,
    "longitude": 77.2708376,
    "opening_hours": "N/A",
    "brand": "Medical Store",
    "data_source": "OpenStreetMap"
  },
  {
    "osm_id": 10287043734,
    "name": "Apollo Pharmacy",
    "address": "Apollo Pharmacy, Narwana Road, Patparganj Industrial Area, Preet Vihar Tehsil, East Delhi, Delhi, 110091, India",
    "city": "Delhi",
    "state": "Delhi",
    "pincode": "110091",
    "phone": "N/A",
    "latitude": 28.6186484,
    "longitude": 77.2847632,
    "opening_hours": "N/A",
    "brand": "Apollo Pharmacy",
    "data_source": "OpenStreetMap"
  },
  {
    "osm_id": 10299807155,
    "name": "Luthra Chemist",
    "address": "Nizamuddin East Market",
    "city": "New Delhi",
    "state": "Delhi",
    "pincode": "110013",
    "phone": "+91-11-4182-5113",
    "latitude": 28.5896915,
    "longitude": 77.2525296,
    "opening_hours": "N/A",
    "brand": "Chemist",
    "data_source": "OpenStreetMap"
  },
  {
    "osm_id": 10308480092,
    "name": "Parkash Medicos",
    "address": "Nizamuddin East",
    "city": "Delhi",
    "state": "Delhi",
    "pincode": "",
    "phone": "N/A",
    "latitude": 28.5895222,
    "longitude": 77.2525243,
    "opening_hours": "N/A",
    "brand": "Medicos",
    "data_source": "OpenStreetMap"
  },
  {
    "osm_id": 10569099215,
    "name": "Mahadev Medicos",
    "address": "Jahangirpuri",
    "city": "Delhi",
    "state": "Delhi",
    "pincode": "110033",
    "phone": "N/A",
    "latitude": 28.7243716,
    "longitude": 77.1726465,
    "opening_hours": "N/A",
    "brand": "Medicos",
    "data_source": "OpenStreetMap"
  },
  {
    "osm_id": 10570198595,
    "name": "Pal Pharmacy",
    "address": "Jahangirpuri",
    "city": "Delhi",
    "state": "Delhi",
    "pincode": "110033",
    "phone": "+91-9911-576340;+91-90848-38482",
    "latitude": 28.7230364,
    "longitude": 77.1693601,
    "opening_hours": "N/A",
    "brand": "Pharmacy",
    "data_source": "OpenStreetMap"
  },
  {
    "osm_id": 10570545209,
    "name": "Preet Medicos",
    "address": "Preet Medicos, Prithviraj Lane, Rabindra Nagar, Chanakya Puri Tehsil, New Delhi, Delhi, 110003, India",
    "city": "Delhi",
    "state": "Delhi",
    "pincode": "110003",
    "phone": "N/A",
    "latitude": 28.6002519,
    "longitude": 77.2270265,
    "opening_hours": "N/A",
    "brand": "Medicos",
    "data_source": "OpenStreetMap"
  },
  {
    "osm_id": 10570545409,
    "name": "Youplus",
    "address": "Youplus, Prithviraj Lane, Rabindra Nagar, Chanakya Puri Tehsil, New Delhi, Delhi, 110003, India",
    "city": "Delhi",
    "state": "Delhi",
    "pincode": "110003",
    "phone": "N/A",
    "latitude": 28.600632,
    "longitude": 77.2271857,
    "opening_hours": "N/A",
    "brand": "Independent",
    "data_source": "OpenStreetMap"
  },
  {
    "osm_id": 10572375259,
    "name": "Health Care Medicos",
    "address": "Jahangirpuri",
    "city": "Delhi",
    "state": "Delhi",
    "pincode": "110033",
    "phone": "+91-83768-80541;+91-78389-60438",
    "latitude": 28.729215,
    "longitude": 77.1738013,
    "opening_hours": "N/A",
    "brand": "Medicos",
    "data_source": "OpenStreetMap"
  },
  {
    "osm_id": 10574458710,
    "name": "The Helpline Pharmacy",
    "address": "The Helpline Pharmacy, Pandit Trilok Chandra Sharma Marg, Press Enclave, Khirki, Hauz Khas Tehsil, South Delhi, Delhi, 110017, India",
    "city": "Delhi",
    "state": "Delhi",
    "pincode": "110017",
    "phone": "N/A",
    "latitude": 28.5283092,
    "longitude": 77.2110304,
    "opening_hours": "24/7",
    "brand": "Pharmacy",
    "data_source": "OpenStreetMap"
  },
  {
    "osm_id": 10574467809,
    "name": "Shree Narayan Pharmacy",
    "address": "Shree Narayan Pharmacy, Pandit Trilok Chandra Sharma Marg, Press Enclave, Khirki, Hauz Khas Tehsil, South Delhi, Delhi, 110017, India",
    "city": "Delhi",
    "state": "Delhi",
    "pincode": "110017",
    "phone": "N/A",
    "latitude": 28.528449,
    "longitude": 77.2108339,
    "opening_hours": "N/A",
    "brand": "Pharmacy",
    "data_source": "OpenStreetMap"
  },
  {
    "osm_id": 10574470609,
    "name": "Indian Medicos",
    "address": "Indian Medicos, Pandit Trilok Chandra Sharma Marg, Press Enclave, Khirki, Hauz Khas Tehsil, South Delhi, Delhi, 110017, India",
    "city": "Delhi",
    "state": "Delhi",
    "pincode": "110017",
    "phone": "N/A",
    "latitude": 28.5284356,
    "longitude": 77.2105819,
    "opening_hours": "N/A",
    "brand": "Medicos",
    "data_source": "OpenStreetMap"
  },
  {
    "osm_id": 10574470610,
    "name": "Krishna Help Pharmacy",
    "address": "Krishna Help Pharmacy, Pandit Trilok Chandra Sharma Marg, Press Enclave, Khirki, Hauz Khas Tehsil, South Delhi, Delhi, 110017, India",
    "city": "Delhi",
    "state": "Delhi",
    "pincode": "110017",
    "phone": "N/A",
    "latitude": 28.5284829,
    "longitude": 77.2102559,
    "opening_hours": "N/A",
    "brand": "Pharmacy",
    "data_source": "OpenStreetMap"
  },
  {
    "osm_id": 10574470709,
    "name": "Irex Pharmacy",
    "address": "Irex Pharmacy, Pandit Trilok Chandra Sharma Marg, Press Enclave, Khirki, Hauz Khas Tehsil, South Delhi, Delhi, 110017, India",
    "city": "Delhi",
    "state": "Delhi",
    "pincode": "110017",
    "phone": "N/A",
    "latitude": 28.5284722,
    "longitude": 77.2102825,
    "opening_hours": "N/A",
    "brand": "Pharmacy",
    "data_source": "OpenStreetMap"
  },
  {
    "osm_id": 10576036741,
    "name": "Anand Drug Store",
    "address": "Anand Drug Store, Subramaniyam Bharti Marg, Rabindra Nagar, Chanakya Puri Tehsil, New Delhi, Delhi, 110003, India",
    "city": "Delhi",
    "state": "Delhi",
    "pincode": "110003",
    "phone": "9310353839",
    "latitude": 28.6001292,
    "longitude": 77.2274321,
    "opening_hours": "N/A",
    "brand": "Independent",
    "data_source": "OpenStreetMap"
  },
  {
    "osm_id": 10589065506,
    "name": "Chemist Shop",
    "address": "Chemist Shop, Mathura Road, Defence Colony Tehsil, South East Delhi, Delhi, 110013, India",
    "city": "Delhi",
    "state": "Delhi",
    "pincode": "110013",
    "phone": "N/A",
    "latitude": 28.5916336,
    "longitude": 77.2434618,
    "opening_hours": "N/A",
    "brand": "Chemist Shop",
    "data_source": "OpenStreetMap"
  },
  {
    "osm_id": 10593889335,
    "name": "Jyoti Medicose",
    "address": "Jyoti Medicose, Kushal Cinema Road, E Block, Model Town Tehsil, North Delhi, Delhi, 110033, India",
    "city": "Delhi",
    "state": "Delhi",
    "pincode": "110033",
    "phone": "N/A",
    "latitude": 28.7305028,
    "longitude": 77.1749286,
    "opening_hours": "N/A",
    "brand": "Medicos",
    "data_source": "OpenStreetMap"
  },
  {
    "osm_id": 10595976687,
    "name": "Chemist Shop",
    "address": "Doctor KB Hedgewar Marg, Bhalswa, Model Town Tehsil, North Delhi, Delhi, 110033, India",
    "city": "Delhi",
    "state": "Delhi",
    "pincode": "110033",
    "phone": "N/A",
    "latitude": 28.7332992,
    "longitude": 77.17323,
    "opening_hours": "N/A",
    "brand": "Chemist Shop",
    "data_source": "OpenStreetMap"
  },
  {
    "osm_id": 10595976689,
    "name": "Chemist Shop",
    "address": "Doctor KB Hedgewar Marg, Bhalswa, Model Town Tehsil, North Delhi, Delhi, 110033, India",
    "city": "Delhi",
    "state": "Delhi",
    "pincode": "110033",
    "phone": "N/A",
    "latitude": 28.7331499,
    "longitude": 77.1729695,
    "opening_hours": "N/A",
    "brand": "Chemist Shop",
    "data_source": "OpenStreetMap"
  },
  {
    "osm_id": 10595976691,
    "name": "Chemist Shop",
    "address": "Doctor KB Hedgewar Marg, Bhalswa, Model Town Tehsil, North Delhi, Delhi, 110033, India",
    "city": "Delhi",
    "state": "Delhi",
    "pincode": "110033",
    "phone": "N/A",
    "latitude": 28.7332052,
    "longitude": 77.1730713,
    "opening_hours": "N/A",
    "brand": "Chemist Shop",
    "data_source": "OpenStreetMap"
  },
  {
    "osm_id": 10595976693,
    "name": "Chemist Shop",
    "address": "Doctor KB Hedgewar Marg, Bhalswa, Model Town Tehsil, North Delhi, Delhi, 110033, India",
    "city": "Delhi",
    "state": "Delhi",
    "pincode": "110033",
    "phone": "N/A",
    "latitude": 28.7331735,
    "longitude": 77.1730105,
    "opening_hours": "N/A",
    "brand": "Chemist Shop",
    "data_source": "OpenStreetMap"
  },
  {
    "osm_id": 10595976695,
    "name": "Chemist Shop",
    "address": "Doctor KB Hedgewar Marg, Bhalswa, Model Town Tehsil, North Delhi, Delhi, 110033, India",
    "city": "Delhi",
    "state": "Delhi",
    "pincode": "110033",
    "phone": "N/A",
    "latitude": 28.7332669,
    "longitude": 77.1731704,
    "opening_hours": "N/A",
    "brand": "Chemist Shop",
    "data_source": "OpenStreetMap"
  },
  {
    "osm_id": 10614096228,
    "name": "Shri Ram Medicos",
    "address": "Jahangir Puri",
    "city": "Delhi",
    "state": "Delhi",
    "pincode": "110033",
    "phone": "+91-98719-47122",
    "latitude": 28.7305729,
    "longitude": 77.1685116,
    "opening_hours": "N/A",
    "brand": "Medicos",
    "data_source": "OpenStreetMap"
  },
  {
    "osm_id": 10630268912,
    "name": "Astha Medicare",
    "address": "Jahangir Puri",
    "city": "Delhi",
    "state": "Delhi",
    "pincode": "110033",
    "phone": "N/A",
    "latitude": 28.7272879,
    "longitude": 77.1646416,
    "opening_hours": "N/A",
    "brand": "Independent",
    "data_source": "OpenStreetMap"
  },
  {
    "osm_id": 10690514227,
    "name": "Shanti store",
    "address": "Shanti store, Prithviraj Lane, Rabindra Nagar, Chanakya Puri Tehsil, New Delhi, Delhi, 110003, India",
    "city": "Delhi",
    "state": "Delhi",
    "pincode": "110003",
    "phone": "N/A",
    "latitude": 28.6008103,
    "longitude": 77.2257627,
    "opening_hours": "N/A",
    "brand": "Independent",
    "data_source": "OpenStreetMap"
  },
  {
    "osm_id": 10699232065,
    "name": "Shakuntala Pharmacy",
    "address": "Shakuntala Pharmacy, Chaudi Gali, I Block, Model Town Tehsil, North Delhi, Delhi, 110033, India",
    "city": "Delhi",
    "state": "Delhi",
    "pincode": "110033",
    "phone": "+91-80764-92743;+91-88266-39402",
    "latitude": 28.7290084,
    "longitude": 77.1627219,
    "opening_hours": "N/A",
    "brand": "Pharmacy",
    "data_source": "OpenStreetMap"
  },
  {
    "osm_id": 10706594899,
    "name": "Aggarwal Mediways",
    "address": "Aggarwal Mediways, Mangal Bazar Road, Jahangirpuri Colony, Model Town Tehsil, North Delhi, Delhi, 110033, India",
    "city": "Delhi",
    "state": "Delhi",
    "pincode": "110033",
    "phone": "N/A",
    "latitude": 28.7326297,
    "longitude": 77.1621166,
    "opening_hours": "N/A",
    "brand": "Independent",
    "data_source": "OpenStreetMap"
  },
  {
    "osm_id": 10706635433,
    "name": "Shivam Medicos",
    "address": "Shivam Medicos, Chaudi Gali, J Block, Model Town Tehsil, North Delhi, Delhi, 110033, India",
    "city": "Delhi",
    "state": "Delhi",
    "pincode": "110033",
    "phone": "N/A",
    "latitude": 28.731997,
    "longitude": 77.1626839,
    "opening_hours": "N/A",
    "brand": "Medicos",
    "data_source": "OpenStreetMap"
  },
  {
    "osm_id": 10709021545,
    "name": "Sushmita Medicos",
    "address": "Mahendra Park",
    "city": "Delhi",
    "state": "Delhi",
    "pincode": "",
    "phone": "+91-98111-44951",
    "latitude": 28.7228857,
    "longitude": 77.1670429,
    "opening_hours": "N/A",
    "brand": "Medicos",
    "data_source": "OpenStreetMap"
  },
  {
    "osm_id": 10723171539,
    "name": "Goyal Medicos",
    "address": "Jahangir Puri",
    "city": "Delhi",
    "state": "Delhi",
    "pincode": "110033",
    "phone": "+91-99990-29006",
    "latitude": 28.7314318,
    "longitude": 77.169107,
    "opening_hours": "N/A",
    "brand": "Medicos",
    "data_source": "OpenStreetMap"
  },
  {
    "osm_id": 10739029981,
    "name": "Shri Chemist",
    "address": "Shri Chemist, Sanjay Nagar Main Road, Mahendra Park, Model Town Tehsil, North Delhi, Delhi, 110033, India",
    "city": "Delhi",
    "state": "Delhi",
    "pincode": "110033",
    "phone": "N/A",
    "latitude": 28.7223155,
    "longitude": 77.1697157,
    "opening_hours": "N/A",
    "brand": "Chemist",
    "data_source": "OpenStreetMap"
  },
  {
    "osm_id": 10750406570,
    "name": "Shri Balaji Medicos",
    "address": "Mahendra Park",
    "city": "Delhi",
    "state": "Delhi",
    "pincode": "110033",
    "phone": "N/A",
    "latitude": 28.721817,
    "longitude": 77.1693137,
    "opening_hours": "N/A",
    "brand": "Medicos",
    "data_source": "OpenStreetMap"
  },
  {
    "osm_id": 10766095911,
    "name": "Hanuman Medicos",
    "address": "Hanuman Medicos, Mangal Bazar Road, Jahangirpuri Colony, Model Town Tehsil, North Delhi, Delhi, 110033, India",
    "city": "Delhi",
    "state": "Delhi",
    "pincode": "110033",
    "phone": "N/A",
    "latitude": 28.7328724,
    "longitude": 77.1643092,
    "opening_hours": "N/A",
    "brand": "Medicos",
    "data_source": "OpenStreetMap"
  },
  {
    "osm_id": 10772656194,
    "name": "Ashirwad Ayurvedic Store",
    "address": "Ashirwad Ayurvedic Store, Gali #36, Mahendra Park, Model Town Tehsil, North Delhi, Delhi, 110033, India",
    "city": "Delhi",
    "state": "Delhi",
    "pincode": "110033",
    "phone": "+91-9811-773-899",
    "latitude": 28.7235897,
    "longitude": 77.165837,
    "opening_hours": "N/A",
    "brand": "Independent",
    "data_source": "OpenStreetMap"
  },
  {
    "osm_id": 10775835830,
    "name": "Parth Medicos",
    "address": "Parth Medicos, Mother Dairy Road, Patparganj Industrial Area, Mayur Vihar Tehsil, East Delhi, Delhi, 110091, India",
    "city": "Delhi",
    "state": "Delhi",
    "pincode": "110091",
    "phone": "N/A",
    "latitude": 28.6193728,
    "longitude": 77.2859175,
    "opening_hours": "N/A",
    "brand": "Medicos",
    "data_source": "OpenStreetMap"
  },
  {
    "osm_id": 10816807248,
    "name": "Next Door Pharma",
    "address": "Next Door Pharma, Mahatma Hansraj Marg, Jaipuria Mill, New Chandrawal, Civil Lines Tehsil, Central Delhi, Delhi, 110007, India",
    "city": "Delhi",
    "state": "Delhi",
    "pincode": "110007",
    "phone": "N/A",
    "latitude": 28.6781389,
    "longitude": 77.2081362,
    "opening_hours": "N/A",
    "brand": "Independent",
    "data_source": "OpenStreetMap"
  },
  {
    "osm_id": 10825977293,
    "name": "Red Dot Pharmacy",
    "address": "Red Dot Pharmacy, Rajan Babu Road, Model Town Tehsil, North Delhi, Delhi, 110033, India",
    "city": "Delhi",
    "state": "Delhi",
    "pincode": "110033",
    "phone": "+91-78381-80453",
    "latitude": 28.7195471,
    "longitude": 77.1740878,
    "opening_hours": "N/A",
    "brand": "Pharmacy",
    "data_source": "OpenStreetMap"
  },
  {
    "osm_id": 10845341289,
    "name": "Rama Medicos",
    "address": "Bhalswa Dairy",
    "city": "Delhi",
    "state": "Delhi",
    "pincode": "110042",
    "phone": "+91-80766-33593;+91-98112-13825",
    "latitude": 28.7414218,
    "longitude": 77.162634,
    "opening_hours": "N/A",
    "brand": "Medicos",
    "data_source": "OpenStreetMap"
  },
  {
    "osm_id": 10864790209,
    "name": "Healthskool Pharmacy",
    "address": "Healthskool Pharmacy, Guru Gobind Singh Marg, Malviya Nagar, Hauz Khas Tehsil, South Delhi, Delhi, 110017, India",
    "city": "Delhi",
    "state": "Delhi",
    "pincode": "110017",
    "phone": "N/A",
    "latitude": 28.5374327,
    "longitude": 77.2131401,
    "opening_hours": "N/A",
    "brand": "Pharmacy",
    "data_source": "OpenStreetMap"
  },
  {
    "osm_id": 10864790221,
    "name": "Guardian Pharmacy",
    "address": "Guardian Pharmacy, Hetraj Batra Marg, Malviya Nagar, Hauz Khas Tehsil, South Delhi, Delhi, 110017, India",
    "city": "Delhi",
    "state": "Delhi",
    "pincode": "110017",
    "phone": "N/A",
    "latitude": 28.5362892,
    "longitude": 77.2119629,
    "opening_hours": "N/A",
    "brand": "Guardian Pharmacy",
    "data_source": "OpenStreetMap"
  },
  {
    "osm_id": 10893067287,
    "name": "Chemist Shop",
    "address": "local road, Shakarpur, Gandhi Nagar Tehsil, East Delhi, Delhi, 110031, India",
    "city": "Delhi",
    "state": "Delhi",
    "pincode": "110031",
    "phone": "N/A",
    "latitude": 28.6272346,
    "longitude": 77.2795725,
    "opening_hours": "N/A",
    "brand": "Chemist Shop",
    "data_source": "OpenStreetMap"
  },
  {
    "osm_id": 10893067291,
    "name": "Vishnu Medicos",
    "address": "Vishnu Medicos, Mother Dairy Road, Shakarpur, Gandhi Nagar Tehsil, East Delhi, Delhi, 110031, India",
    "city": "Delhi",
    "state": "Delhi",
    "pincode": "110031",
    "phone": "+91-11-4950-7123",
    "latitude": 28.6285746,
    "longitude": 77.2781948,
    "opening_hours": "N/A",
    "brand": "Medicos",
    "data_source": "OpenStreetMap"
  },
  {
    "osm_id": 10899400007,
    "name": "Life Line Medicose",
    "address": "Life Line Medicose, Sadbhavana Road, Indraprastha Extension, Preet Vihar Tehsil, East Delhi, Delhi, 110091, India",
    "city": "Delhi",
    "state": "Delhi",
    "pincode": "110091",
    "phone": "N/A",
    "latitude": 28.6221182,
    "longitude": 77.2937082,
    "opening_hours": "N/A",
    "brand": "Medicos",
    "data_source": "OpenStreetMap"
  },
  {
    "osm_id": 10901628317,
    "name": "13 Pharmacy",
    "address": "13 Pharmacy, Road Number B-7, Sector 18, Rohini, Alipur Tehsil, North Delhi, Delhi, 110089, India",
    "city": "Delhi",
    "state": "Delhi",
    "pincode": "110089",
    "phone": "N/A",
    "latitude": 28.7415578,
    "longitude": 77.1321707,
    "opening_hours": "N/A",
    "brand": "Pharmacy",
    "data_source": "OpenStreetMap"
  },
  {
    "osm_id": 10908114876,
    "name": "Raj Medicos",
    "address": "Raj Medicos, Thana Road, Kalander Colony, Rajiv Nagar, Model Town Tehsil, North Delhi, Delhi, 110042, India",
    "city": "Delhi",
    "state": "Delhi",
    "pincode": "110042",
    "phone": "N/A",
    "latitude": 28.7451312,
    "longitude": 77.1657522,
    "opening_hours": "N/A",
    "brand": "Medicos",
    "data_source": "OpenStreetMap"
  },
  {
    "osm_id": 10918211605,
    "name": "Chemist Shop",
    "address": "222, Block B7, Bhalswa JJ Colony, Delhi - 110042, Bhalswa JJ Colony",
    "city": "Delhi",
    "state": "Delhi",
    "pincode": "110042",
    "phone": "N/A",
    "latitude": 28.7536039,
    "longitude": 77.1627035,
    "opening_hours": "N/A",
    "brand": "Chemist Shop",
    "data_source": "OpenStreetMap"
  },
  {
    "osm_id": 10931188071,
    "name": "Kalra Medical Store",
    "address": "Kalra Medical Store, 55;56, Sadbhavana Road, Indraprastha Extension, Preet Vihar Tehsil, East Delhi, Delhi, 110092, India",
    "city": "Delhi",
    "state": "Delhi",
    "pincode": "110092",
    "phone": "+91-93156-73181;+91-99687-69627",
    "latitude": 28.6220881,
    "longitude": 77.2937811,
    "opening_hours": "N/A",
    "brand": "Medical Store",
    "data_source": "OpenStreetMap"
  },
  {
    "osm_id": 10936907331,
    "name": "Sunrise Medicose",
    "address": "Mahendra Park",
    "city": "Delhi",
    "state": "Delhi",
    "pincode": "110033",
    "phone": "N/A",
    "latitude": 28.724014,
    "longitude": 77.1683621,
    "opening_hours": "N/A",
    "brand": "Medicos",
    "data_source": "OpenStreetMap"
  },
  {
    "osm_id": 10941972227,
    "name": "Zeelab Pharmacy",
    "address": "Zeelab Pharmacy, Mother Dairy Road, Shakarpur, Gandhi Nagar Tehsil, East Delhi, Delhi, 110031, India",
    "city": "Delhi",
    "state": "Delhi",
    "pincode": "110031",
    "phone": "N/A",
    "latitude": 28.6272624,
    "longitude": 77.2795261,
    "opening_hours": "N/A",
    "brand": "Zeelab Pharmacy",
    "data_source": "OpenStreetMap"
  },
  {
    "osm_id": 10951313541,
    "name": "Chhabra Medicos",
    "address": "Chhabra Medicos, Swami Shraddhanand Colony Main Road, Kalander Colony, Bhalswa Jahangirpuri, Model Town Tehsil, North Delhi, Delhi, 110042, India",
    "city": "Delhi",
    "state": "Delhi",
    "pincode": "110042",
    "phone": "N/A",
    "latitude": 28.7436714,
    "longitude": 77.1601854,
    "opening_hours": "N/A",
    "brand": "Medicos",
    "data_source": "OpenStreetMap"
  },
  {
    "osm_id": 10994545641,
    "name": "Surender Medicos",
    "address": "Surender Medicos, 30 Foota Road, Swami Shraddhanand Colony, Model Town Tehsil, North Delhi, Delhi, 110042, India",
    "city": "Delhi",
    "state": "Delhi",
    "pincode": "110042",
    "phone": "+91-80538-33443",
    "latitude": 28.7465303,
    "longitude": 77.1604672,
    "opening_hours": "N/A",
    "brand": "Medicos",
    "data_source": "OpenStreetMap"
  },
  {
    "osm_id": 11013582456,
    "name": "Kanhaiya Medicos",
    "address": "Shop No. 3 & 4, Kh. No. 766, Gali No. 2, Rajeev Nagar, Village Bhalaswa, Delhi - 110042, Rajeev Nagar, Gali Number 2, Bhalaswa",
    "city": "Delhi",
    "state": "Delhi",
    "pincode": "110042",
    "phone": "+91-78384-64020;+91-83-7799-3143",
    "latitude": 28.7433776,
    "longitude": 77.1638711,
    "opening_hours": "N/A",
    "brand": "Medicos",
    "data_source": "OpenStreetMap"
  },
  {
    "osm_id": 11022387613,
    "name": "Chauhan Mediways",
    "address": "Chauhan Mediways, Swami Shraddhanand Colony Main Road, Kalander Colony, Swami Shraddhanand Colony, Model Town Tehsil, North Delhi, Delhi, 110042, India",
    "city": "Delhi",
    "state": "Delhi",
    "pincode": "110042",
    "phone": "N/A",
    "latitude": 28.7452384,
    "longitude": 77.1603162,
    "opening_hours": "N/A",
    "brand": "Independent",
    "data_source": "OpenStreetMap"
  },
  {
    "osm_id": 11022926405,
    "name": "Medipoint Medicos",
    "address": "Adarsh Nagar",
    "city": "Delhi",
    "state": "Delhi",
    "pincode": "110033",
    "phone": "N/A",
    "latitude": 28.7168161,
    "longitude": 77.1749655,
    "opening_hours": "N/A",
    "brand": "Medicos",
    "data_source": "OpenStreetMap"
  },
  {
    "osm_id": 11025053713,
    "name": "Shri Balaji Medicos",
    "address": "Swami Shraddhanand Colony",
    "city": "Delhi",
    "state": "Delhi",
    "pincode": "110042",
    "phone": "+91-999922-4688",
    "latitude": 28.7466106,
    "longitude": 77.1611552,
    "opening_hours": "N/A",
    "brand": "Medicos",
    "data_source": "OpenStreetMap"
  },
  {
    "osm_id": 11085551684,
    "name": "Kiran Medical Store",
    "address": "Kiran Medical Store, Gali Number 8, D Block, Rajiv Nagar, Model Town Tehsil, North Delhi, Delhi, 110042, India",
    "city": "Delhi",
    "state": "Delhi",
    "pincode": "110042",
    "phone": "N/A",
    "latitude": 28.7443622,
    "longitude": 77.1678798,
    "opening_hours": "N/A",
    "brand": "Medical Store",
    "data_source": "OpenStreetMap"
  },
  {
    "osm_id": 11091069271,
    "name": "Neelkanth",
    "address": "Neelkanth, F-1;F-2, Madhu Vihar, Preet Vihar Tehsil, East Delhi, Delhi, 110092, India",
    "city": "Delhi",
    "state": "Delhi",
    "pincode": "110092",
    "phone": "+91-8448-591-908",
    "latitude": 28.6375094,
    "longitude": 77.3040932,
    "opening_hours": "N/A",
    "brand": "Independent",
    "data_source": "OpenStreetMap"
  },
  {
    "osm_id": 11113323429,
    "name": "GACSS Pharmarcy",
    "address": "Madhu Vihar, Indraprastha Extension",
    "city": "Delhi",
    "state": "Delhi",
    "pincode": "110092",
    "phone": "+91-92892-24764;+91-93505-30235",
    "latitude": 28.6367333,
    "longitude": 77.3048618,
    "opening_hours": "N/A",
    "brand": "Independent",
    "data_source": "OpenStreetMap"
  },
  {
    "osm_id": 11207804324,
    "name": "Sitara pharmacy",
    "address": "Jangpura extension",
    "city": "Delhi",
    "state": "Delhi",
    "pincode": "",
    "phone": "N/A",
    "latitude": 28.582994,
    "longitude": 77.2450769,
    "opening_hours": "N/A",
    "brand": "Pharmacy",
    "data_source": "OpenStreetMap"
  },
  {
    "osm_id": 11207867419,
    "name": "Life Line Medicos",
    "address": "Life Line Medicos, Hospital Road, Jangpura Extension, Defence Colony Tehsil, South East Delhi, Delhi, 110014, India",
    "city": "Delhi",
    "state": "Delhi",
    "pincode": "110014",
    "phone": "+919953548317",
    "latitude": 28.5829724,
    "longitude": 77.2449404,
    "opening_hours": "N/A",
    "brand": "Medicos",
    "data_source": "OpenStreetMap"
  },
  {
    "osm_id": 11207893846,
    "name": "U.A. Medicos",
    "address": "U.A. Medicos, Birbal Road, Jangpura Extension, Defence Colony Tehsil, South East Delhi, Delhi, 110014, India",
    "city": "Delhi",
    "state": "Delhi",
    "pincode": "110014",
    "phone": "+919910026636",
    "latitude": 28.5828995,
    "longitude": 77.2448449,
    "opening_hours": "N/A",
    "brand": "Medicos",
    "data_source": "OpenStreetMap"
  },
  {
    "osm_id": 11210260649,
    "name": "Shiv medicos",
    "address": "Shiv medicos, C R Road, Shakarpur, Gandhi Nagar Tehsil, East Delhi, Delhi, 110031, India",
    "city": "Delhi",
    "state": "Delhi",
    "pincode": "110031",
    "phone": "N/A",
    "latitude": 28.6310699,
    "longitude": 77.2764795,
    "opening_hours": "N/A",
    "brand": "Medicos",
    "data_source": "OpenStreetMap"
  },
  {
    "osm_id": 11210262491,
    "name": "Om Medicos",
    "address": "CR road",
    "city": "Delhi",
    "state": "Delhi",
    "pincode": "",
    "phone": "N/A",
    "latitude": 28.6318135,
    "longitude": 77.2777848,
    "opening_hours": "N/A",
    "brand": "Medicos",
    "data_source": "OpenStreetMap"
  },
  {
    "osm_id": 11210270018,
    "name": "Fairdeal enterprises",
    "address": "street number 10",
    "city": "Delhi",
    "state": "Delhi",
    "pincode": "",
    "phone": "N/A",
    "latitude": 28.6310303,
    "longitude": 77.2764644,
    "opening_hours": "N/A",
    "brand": "Independent",
    "data_source": "OpenStreetMap"
  },
  {
    "osm_id": 11210333063,
    "name": "Healthcare Pharmacy",
    "address": "Healthcare Pharmacy, Mangal Bazar Road, West Angad Nagar, Preet Vihar Tehsil, East Delhi, Delhi, 110031, India",
    "city": "Delhi",
    "state": "Delhi",
    "pincode": "110031",
    "phone": "N/A",
    "latitude": 28.6371904,
    "longitude": 77.2791485,
    "opening_hours": "N/A",
    "brand": "Pharmacy",
    "data_source": "OpenStreetMap"
  },
  {
    "osm_id": 11212461189,
    "name": "Pharmaville",
    "address": "Pharmaville, Vikas Marg, Shakarpur, Gandhi Nagar Tehsil, East Delhi, Delhi, 110031, India",
    "city": "Delhi",
    "state": "Delhi",
    "pincode": "110031",
    "phone": "N/A",
    "latitude": 28.631118,
    "longitude": 77.2786742,
    "opening_hours": "N/A",
    "brand": "Independent",
    "data_source": "OpenStreetMap"
  },
  {
    "osm_id": 11212489757,
    "name": "Jagdamba chemist",
    "address": "Jagdamba chemist, Vikas Marg, Vir Savarkar Block, Shakarpur, Preet Vihar Tehsil, East Delhi, Delhi, 110031, India",
    "city": "Delhi",
    "state": "Delhi",
    "pincode": "110031",
    "phone": "N/A",
    "latitude": 28.634484,
    "longitude": 77.2831332,
    "opening_hours": "N/A",
    "brand": "Chemist",
    "data_source": "OpenStreetMap"
  },
  {
    "osm_id": 11215991493,
    "name": "Medical store",
    "address": "Medical store, Vikas Marg, Vir Savarkar Block, Shakarpur, Gandhi Nagar Tehsil, East Delhi, Delhi, 110051, India",
    "city": "Delhi",
    "state": "Delhi",
    "pincode": "110051",
    "phone": "N/A",
    "latitude": 28.6323261,
    "longitude": 77.2806507,
    "opening_hours": "N/A",
    "brand": "Medical Store",
    "data_source": "OpenStreetMap"
  },
  {
    "osm_id": 11224985474,
    "name": "Binni medicose",
    "address": "Binni medicose, Gali no 15 lakhpat colony part 2, Sarita Vihar Tehsil, South East Delhi, Delhi, Faridabad, Haryana, 121013, India",
    "city": "Delhi",
    "state": "Delhi",
    "pincode": "121013",
    "phone": "N/A",
    "latitude": 28.495666,
    "longitude": 77.3247549,
    "opening_hours": "Mo-Su 10:00-22:00",
    "brand": "Medicos",
    "data_source": "OpenStreetMap"
  },
  {
    "osm_id": 11235990461,
    "name": "Ravi Medicos",
    "address": "A-30, Shop No.4, Nanda Road, Adarsh Nagar, Delhi - 110033, Adarsh Nagar, Nanda Road",
    "city": "Delhi",
    "state": "Delhi",
    "pincode": "110033",
    "phone": "+91-98101-25756",
    "latitude": 28.7180676,
    "longitude": 77.1716228,
    "opening_hours": "N/A",
    "brand": "Medicos",
    "data_source": "OpenStreetMap"
  },
  {
    "osm_id": 11235990466,
    "name": "Vardhman Medicos",
    "address": "Adarsh Nagar, Rajan Babu Road",
    "city": "Delhi",
    "state": "Delhi",
    "pincode": "110033",
    "phone": "N/A",
    "latitude": 28.7173276,
    "longitude": 77.1708087,
    "opening_hours": "N/A",
    "brand": "Medicos",
    "data_source": "OpenStreetMap"
  },
  {
    "osm_id": 11242142957,
    "name": "Apolo pharmacy",
    "address": "Apolo pharmacy, Nelson Mandela Marg, Vasant Vihar Tehsil, New Delhi, Delhi, 110067, India",
    "city": "Delhi",
    "state": "Delhi",
    "pincode": "110067",
    "phone": "N/A",
    "latitude": 28.5486753,
    "longitude": 77.1670793,
    "opening_hours": "24/7",
    "brand": "Pharmacy",
    "data_source": "OpenStreetMap"
  },
  {
    "osm_id": 11242142958,
    "name": "KC pharmacy",
    "address": "KC pharmacy, Nelson Mandela Marg, Vasant Vihar Tehsil, New Delhi, Delhi, 110067, India",
    "city": "Delhi",
    "state": "Delhi",
    "pincode": "110067",
    "phone": "N/A",
    "latitude": 28.5486086,
    "longitude": 77.1670103,
    "opening_hours": "Mo-Fr 09:00-20:00; Sa-Su off",
    "brand": "Pharmacy",
    "data_source": "OpenStreetMap"
  },
  {
    "osm_id": 11242142978,
    "name": "Life Care Medicos",
    "address": "Life Care Medicos, Baba Gang Nath Marg, Vasant Vihar Tehsil, New Delhi, Delhi, 110067, India",
    "city": "Delhi",
    "state": "Delhi",
    "pincode": "110067",
    "phone": "N/A",
    "latitude": 28.5526618,
    "longitude": 77.1694436,
    "opening_hours": "10:00-20:00",
    "brand": "Medicos",
    "data_source": "OpenStreetMap"
  },
  {
    "osm_id": 11242951116,
    "name": "Chemist Shop",
    "address": "Banda Bahadur Marg, Hakikat Nagar, Model Town Tehsil, North Delhi, Delhi, 110009, India",
    "city": "Delhi",
    "state": "Delhi",
    "pincode": "110009",
    "phone": "N/A",
    "latitude": 28.7003967,
    "longitude": 77.2083966,
    "opening_hours": "N/A",
    "brand": "Chemist Shop",
    "data_source": "OpenStreetMap"
  },
  {
    "osm_id": 11242951702,
    "name": "Tata 1mg",
    "address": "Tata 1mg, Banda Bahadur Marg, Hakikat Nagar, Model Town Tehsil, North Delhi, Delhi, 110009, India",
    "city": "Delhi",
    "state": "Delhi",
    "pincode": "110009",
    "phone": "N/A",
    "latitude": 28.6988678,
    "longitude": 77.2076675,
    "opening_hours": "N/A",
    "brand": "Tata 1mg",
    "data_source": "OpenStreetMap"
  },
  {
    "osm_id": 11262648510,
    "name": "Prem medical store",
    "address": "Prem medical store, Mangal Bazar Road, West Angad Nagar, Preet Vihar Tehsil, East Delhi, Delhi, 110031, India",
    "city": "Delhi",
    "state": "Delhi",
    "pincode": "110031",
    "phone": "N/A",
    "latitude": 28.6376562,
    "longitude": 77.2790404,
    "opening_hours": "N/A",
    "brand": "Medical Store",
    "data_source": "OpenStreetMap"
  },
  {
    "osm_id": 11341232376,
    "name": "Bhagat medicos",
    "address": "Bhagat medicos, Jaitpur Road, Badarpur Thermal Power Station, Sarita Vihar Tehsil, South East Delhi, Delhi, 110044, India",
    "city": "Delhi",
    "state": "Delhi",
    "pincode": "110044",
    "phone": "N/A",
    "latitude": 28.5007488,
    "longitude": 77.3138746,
    "opening_hours": "N/A",
    "brand": "Medicos",
    "data_source": "OpenStreetMap"
  },
  {
    "osm_id": 11409067269,
    "name": "NK Pharmacy",
    "address": "Shop 3 House 1",
    "city": "Delhi",
    "state": "Delhi",
    "pincode": "",
    "phone": "971529571",
    "latitude": 28.5381057,
    "longitude": 77.2078468,
    "opening_hours": "N/A",
    "brand": "Pharmacy",
    "data_source": "OpenStreetMap"
  },
  {
    "osm_id": 11411777336,
    "name": "Medicine Bazaar",
    "address": "Medicine Bazaar, Guru Nanak Dev Road, Sector 11, Rohini, Rohini Tehsil, North West Delhi, Delhi, 110085, India",
    "city": "Delhi",
    "state": "Delhi",
    "pincode": "110085",
    "phone": "+91-98117-51275;+91-81309-11296",
    "latitude": 28.7357502,
    "longitude": 77.1094978,
    "opening_hours": "N/A",
    "brand": "Independent",
    "data_source": "OpenStreetMap"
  },
  {
    "osm_id": 11411777360,
    "name": "Shiv Medicos Chemist",
    "address": "Shiv Medicos Chemist, Guru Nanak Dev Road, Sector 11, Rohini, Rohini Tehsil, North West Delhi, Delhi, 110085, India",
    "city": "Delhi",
    "state": "Delhi",
    "pincode": "110085",
    "phone": "+91-96251-38486;+91-95605-47923",
    "latitude": 28.7357915,
    "longitude": 77.1094377,
    "opening_hours": "N/A",
    "brand": "Medicos",
    "data_source": "OpenStreetMap"
  },
  {
    "osm_id": 11434502160,
    "name": "The Metro Medicos",
    "address": "Sector 11, Rohini",
    "city": "Delhi",
    "state": "Delhi",
    "pincode": "",
    "phone": "+91-11-4759-6060",
    "latitude": 28.7354588,
    "longitude": 77.1099316,
    "opening_hours": "N/A",
    "brand": "Medicos",
    "data_source": "OpenStreetMap"
  },
  {
    "osm_id": 11446011915,
    "name": "Shiva Ayurvedic Store",
    "address": "Shiva Ayurvedic Store, Guru Nanak Dev Road, Sector 11, Rohini, Rohini Tehsil, North West Delhi, Delhi, 110085, India",
    "city": "Delhi",
    "state": "Delhi",
    "pincode": "110085",
    "phone": "+91-95823-83899",
    "latitude": 28.7353572,
    "longitude": 77.110097,
    "opening_hours": "N/A",
    "brand": "Independent",
    "data_source": "OpenStreetMap"
  },
  {
    "osm_id": 11455256732,
    "name": "Shri Parshuram Medicos",
    "address": "Sector 17, Rohini",
    "city": "Delhi",
    "state": "Delhi",
    "pincode": "110085",
    "phone": "+91-93191-09544;+91-96508-41957",
    "latitude": 28.737777,
    "longitude": 77.116388,
    "opening_hours": "N/A",
    "brand": "Medicos",
    "data_source": "OpenStreetMap"
  },
  {
    "osm_id": 11575886671,
    "name": "Pradhan Mantri Bharatiya Jan Aushadhi Kendra",
    "address": "Madhu Vihar",
    "city": "Delhi",
    "state": "Delhi",
    "pincode": "",
    "phone": "+91-99582-44698;+91-93108-67903",
    "latitude": 28.637447,
    "longitude": 77.3041487,
    "opening_hours": "Mo-Su 09:00-22:00",
    "brand": "Independent",
    "data_source": "OpenStreetMap"
  },
  {
    "osm_id": 11590988873,
    "name": "Jain Medicos",
    "address": "Jain Medicos, Power House Road, Pitampura, Saraswati Vihar Tehsil, North West Delhi, Delhi, 110034, India",
    "city": "Delhi",
    "state": "Delhi",
    "pincode": "110034",
    "phone": "+91-11-4550-4613",
    "latitude": 28.7001373,
    "longitude": 77.1412257,
    "opening_hours": "24/7",
    "brand": "Medicos",
    "data_source": "OpenStreetMap"
  },
  {
    "osm_id": 11594245904,
    "name": "Singh Medicos",
    "address": "Greater Kailash",
    "city": "New Delhi",
    "state": "Delhi",
    "pincode": "110048",
    "phone": "+91-11-4905-7018;+91-11-2923-2344",
    "latitude": 28.5498211,
    "longitude": 77.2340326,
    "opening_hours": "N/A",
    "brand": "Medicos",
    "data_source": "OpenStreetMap"
  },
  {
    "osm_id": 11697035817,
    "name": "ganesh medicos",
    "address": "ganesh medicos, Mehrauli Badarpur Road, Tughlakabad, Kalkaji Tehsil, South East Delhi, Delhi, 121009, India",
    "city": "Delhi",
    "state": "Delhi",
    "pincode": "121009",
    "phone": "N/A",
    "latitude": 28.4977164,
    "longitude": 77.2829832,
    "opening_hours": "N/A",
    "brand": "Medicos",
    "data_source": "OpenStreetMap"
  },
  {
    "osm_id": 11747878617,
    "name": "Chemist Shop",
    "address": "Green Lane, Greater Kailash I, Kalkaji Tehsil, South East Delhi, Delhi, 110048, India",
    "city": "Delhi",
    "state": "Delhi",
    "pincode": "110048",
    "phone": "+91-93101-03952;+91-70489-29237",
    "latitude": 28.550139,
    "longitude": 77.235665,
    "opening_hours": "N/A",
    "brand": "Chemist Shop",
    "data_source": "OpenStreetMap"
  },
  {
    "osm_id": 11802232771,
    "name": "Skinos Pharmacy",
    "address": "Skinos Pharmacy, Chhatori Lane, Jaipuria Mill, Kamla Nagar, Civil Lines Tehsil, Central Delhi, Delhi, 110007, India",
    "city": "Delhi",
    "state": "Delhi",
    "pincode": "110007",
    "phone": "N/A",
    "latitude": 28.6808199,
    "longitude": 77.2077599,
    "opening_hours": "N/A",
    "brand": "Pharmacy",
    "data_source": "OpenStreetMap"
  },
  {
    "osm_id": 11818675681,
    "name": "Medicine House",
    "address": "Satya Niketan",
    "city": "New Delhi",
    "state": "Delhi",
    "pincode": "110021",
    "phone": "+917827856055",
    "latitude": 28.5875719,
    "longitude": 77.1689867,
    "opening_hours": "N/A",
    "brand": "Independent",
    "data_source": "OpenStreetMap"
  },
  {
    "osm_id": 11830035752,
    "name": "Parkash Medical Store",
    "address": "Parkash Medical Store, Samaypur Underpass, Samaipur Badli, Alipur Tehsil, North Delhi, Delhi, 110042, India",
    "city": "Delhi",
    "state": "Delhi",
    "pincode": "110042",
    "phone": "N/A",
    "latitude": 28.7440311,
    "longitude": 77.1423951,
    "opening_hours": "N/A",
    "brand": "Medical Store",
    "data_source": "OpenStreetMap"
  },
  {
    "osm_id": 11837484594,
    "name": "Krishna Store",
    "address": "Krishna Store, 233; 314, Sadar Bazar Road, Sadar Bazar, Delhi Cantonment, New Delhi, Delhi, 110046, India",
    "city": "Delhi",
    "state": "Delhi",
    "pincode": "110046",
    "phone": "N/A",
    "latitude": 28.5963766,
    "longitude": 77.122971,
    "opening_hours": "N/A",
    "brand": "Independent",
    "data_source": "OpenStreetMap"
  },
  {
    "osm_id": 11837484620,
    "name": "Balaji Medicos",
    "address": "Balaji Medicos, Sadar Bazar Road, Sadar Bazar, Delhi Cantonment, New Delhi, Delhi, 110046, India",
    "city": "Delhi",
    "state": "Delhi",
    "pincode": "110046",
    "phone": "N/A",
    "latitude": 28.5964596,
    "longitude": 77.1230067,
    "opening_hours": "N/A",
    "brand": "Medicos",
    "data_source": "OpenStreetMap"
  },
  {
    "osm_id": 11837484625,
    "name": "Army Medical And General Store",
    "address": "Army Medical And General Store, 234, Sadar Bazar Road, Sadar Bazar, Delhi Cantonment, New Delhi, Delhi, 110046, India",
    "city": "Delhi",
    "state": "Delhi",
    "pincode": "110046",
    "phone": "N/A",
    "latitude": 28.5963388,
    "longitude": 77.1229528,
    "opening_hours": "N/A",
    "brand": "Independent",
    "data_source": "OpenStreetMap"
  },
  {
    "osm_id": 11850272201,
    "name": "Chemist Shop",
    "address": "DLI Side Subway, Anand Vihar, Vivek Vihar Tehsil, Shahdara, Delhi, 110092, India",
    "city": "Delhi",
    "state": "Delhi",
    "pincode": "110092",
    "phone": "N/A",
    "latitude": 28.6483093,
    "longitude": 77.3152306,
    "opening_hours": "N/A",
    "brand": "Chemist Shop",
    "data_source": "OpenStreetMap"
  },
  {
    "osm_id": 11876276360,
    "name": "Apna Chemist",
    "address": "Apna Chemist, Sujan Mohinder Road, New Friends Colony, Kalkaji Tehsil, South East Delhi, Delhi, 110025, India",
    "city": "Delhi",
    "state": "Delhi",
    "pincode": "110025",
    "phone": "N/A",
    "latitude": 28.5631374,
    "longitude": 77.2689804,
    "opening_hours": "N/A",
    "brand": "Chemist",
    "data_source": "OpenStreetMap"
  },
  {
    "osm_id": 11876283906,
    "name": "Chemist Shop",
    "address": "Sujan Mohinder Road, New Friends Colony, Kalkaji Tehsil, South East Delhi, Delhi, 110025, India",
    "city": "Delhi",
    "state": "Delhi",
    "pincode": "110025",
    "phone": "N/A",
    "latitude": 28.5631214,
    "longitude": 77.2690055,
    "opening_hours": "N/A",
    "brand": "Chemist Shop",
    "data_source": "OpenStreetMap"
  },
  {
    "osm_id": 11886528852,
    "name": "Bhartiya Medical General Store",
    "address": "Bhartiya Medical General Store, Sadar Bazar Road, Sadar Bazar, Delhi Cantonment, New Delhi, Delhi, 110046, India",
    "city": "Delhi",
    "state": "Delhi",
    "pincode": "110046",
    "phone": "N/A",
    "latitude": 28.5934787,
    "longitude": 77.1219529,
    "opening_hours": "N/A",
    "brand": "Independent",
    "data_source": "OpenStreetMap"
  },
  {
    "osm_id": 11886578480,
    "name": "Sethi Medical And General Store",
    "address": "Sethi Medical And General Store, 40, Sadar Bazar Road, Sadar Bazar, Delhi Cantonment, New Delhi, Delhi, 110046, India",
    "city": "Delhi",
    "state": "Delhi",
    "pincode": "110046",
    "phone": "+91 98185 85359",
    "latitude": 28.5933921,
    "longitude": 77.1219127,
    "opening_hours": "N/A",
    "brand": "Independent",
    "data_source": "OpenStreetMap"
  },
  {
    "osm_id": 11891024856,
    "name": "Empire Stores Chemist",
    "address": "Empire Stores Chemist, Church Road, Gopinath Bazar, Delhi Cantonment, New Delhi, Delhi, 110046, India",
    "city": "Delhi",
    "state": "Delhi",
    "pincode": "110046",
    "phone": "N/A",
    "latitude": 28.5964037,
    "longitude": 77.1346742,
    "opening_hours": "N/A",
    "brand": "Chemist",
    "data_source": "OpenStreetMap"
  },
  {
    "osm_id": 11904083747,
    "name": "Shivam Medicos Pharmacy",
    "address": "Shivam Medicos Pharmacy, 206, Jain Mandir Road, Sadar Bazar, Delhi Cantonment, New Delhi, Delhi, 110046, India",
    "city": "Delhi",
    "state": "Delhi",
    "pincode": "110046",
    "phone": "N/A",
    "latitude": 28.5934126,
    "longitude": 77.1206843,
    "opening_hours": "N/A",
    "brand": "Medicos",
    "data_source": "OpenStreetMap"
  },
  {
    "osm_id": 11916094461,
    "name": "Vinod Medicos",
    "address": "Vinod Medicos, गली संख्या ८, Dwarka, South West Delhi, Delhi, 110078, India",
    "city": "Delhi",
    "state": "Delhi",
    "pincode": "110078",
    "phone": "N/A",
    "latitude": 28.6168239,
    "longitude": 77.0306627,
    "opening_hours": "N/A",
    "brand": "Medicos",
    "data_source": "OpenStreetMap"
  },