[
  {
    "name": "Dr Lal PathLabs - Connaught Place",
    "address": "Shop No 1, Regal Building, Parliament Street Road, Connaught Place",
    "city": "New Delhi",
    "state": "Delhi",
    "pincode": "110001",
    "phone": "011-4988 5050",
    "website": "https://www.lalpathlabs.com",
    "timings": "08:00 AM - 08:00 PM (Everyday)",
    "services": [
      "Blood Test",
      "MRI",
      "CT Scan",
      "X-Ray",
      "Pathology"
    ],
    "latitude": 28.6315,
    "longitude": 77.2167,
    "is_nabl_accredited": true,
    "is_cghs_empanelled": true,
    "data_source": "Official Website"
  },
  {
    "name": "Dr Lal PathLabs - Gurgaon",
    "address": "DLF City Court, Sikanderpur, Gurgaon",
    "city": "Gurgaon",
    "state": "Haryana",
    "pincode": "122001",
    "phone": "0124-3212531",
    "website": "https://www.lalpathlabs.com",
    "timings": "07:30 AM - 09:00 PM (Everyday)",
    "services": [
      "Pathology",
      "Biochemistry",
      "Microbiology"
    ],
    "latitude": 28.4795,
    "longitude": 77.0801,
    "is_nabl_accredited": true,
    "is_cghs_empanelled": true,
    "data_source": "Official Website"
  },
  {
    "name": "SRL Diagnostics - Goregaon",
    "address": "Prime Square Building, Plot no. 1, Gaiwadi Industrial Estate, S V Road",
    "city": "Mumbai",
    "state": "Maharashtra",
    "pincode": "400062",
    "phone": "022-3061 1444",
    "website": "https://www.srlworld.com",
    "timings": "07:00 AM - 09:00 PM",
    "services": [
      "Genomics",
      "Radiology",
      "Pathology",
      "Imaging"
    ],
    "latitude": 19.1623,
    "longitude": 72.8437,
    "is_nabl_accredited": true,
    "is_cghs_empanelled": true,
    "data_source": "Official Website"
  },
  {
    "name": "SRL Diagnostics - Saket",
    "address": "Plot No. D-3 A Wing, 2nd Floor, District Centre, Saket",
    "city": "New Delhi",
    "state": "Delhi",
    "pincode": "110017",
    "phone": "011-3061 1444",
    "website": "https://www.srlworld.com",
    "timings": "08:00 AM - 08:00 PM",
    "services": [
      "Pathology",
      "Radiology",
      "Wellness"
    ],
    "latitude": 28.5244,
    "longitude": 77.2178,
    "is_nabl_accredited": true,
    "is_cghs_empanelled": true,
    "data_source": "Official Website"
  },
  {
    "name": "Metropolis Healthcare - Kukatpally",
    "address": "LIG 464, 7th Phase, KPHB Colony, Kukatpally",
    "city": "Hyderabad",
    "state": "Telangana",
    "pincode": "500085",
    "phone": "040-3399 3399",
    "website": "https://www.metropolisindia.com",
    "timings": "07:30 AM - 08:30 PM",
    "services": [
      "Pathology",
      "Blood Test",
      "Home Collection"
    ],
    "latitude": 17.4933,
    "longitude": 78.3914,
    "is_nabl_accredited": true,
    "is_cghs_empanelled": true,
    "data_source": "Official Website"
  },
  {
    "name": "Metropolis Healthcare - Nungambakkam",
    "address": "No 3, Jagannathan Road, Nungambakkam",
    "city": "Chennai",
    "state": "Tamil Nadu",
    "pincode": "600034",
    "phone": "044-3399 3399",
    "website": "https://www.metropolisindia.com",
    "timings": "08:00 AM - 08:00 PM",
    "services": [
      "Pathology",
      "Specialized Tests",
      "Health Checkups"
    ],
    "latitude": 13.0601,
    "longitude": 80.2464,
    "is_nabl_accredited": true,
    "is_cghs_empanelled": true,
    "data_source": "Official Website"
  },
  {
    "name": "Metropolis Healthcare - Malleshwaram",
    "address": "# 76/10, 4th Main, 15th Cross, Malleshwaram",
    "city": "Bangalore",
    "state": "Karnataka",
    "pincode": "560003",
    "phone": "080-3399 3399",
    "website": "https://www.metropolisindia.com",
    "timings": "07:30 AM - 08:30 PM",
    "services": [
      "Pathology",
      "Histopathology",
      "Cytology"
    ],
    "latitude": 12.9922,
    "longitude": 77.5712,
    "is_nabl_accredited": true,
    "is_cghs_empanelled": false,
    "data_source": "Official Website"
  },
  {
    "name": "Metropolis Healthcare - New Town",
    "address": "Plot No 3E/5, Unit No 105, Action Area 3, New Town",
    "city": "Kolkata",
    "state": "West Bengal",
    "pincode": "700135",
    "phone": "033-3399 3399",
    "website": "https://www.metropolisindia.com",
    "timings": "07:30 AM - 08:30 PM",
    "services": [
      "Biochemistry",
      "Microbiology",
      "Pathology"
    ],
    "latitude": 22.5851,
    "longitude": 88.4907,
    "is_nabl_accredited": true,
    "is_cghs_empanelled": true,
    "data_source": "Official Website"
  },
  {
    "name": "Thyrocare Central Processing Lab",
    "address": "D-37/1, TTC MIDC, Turbhe",
    "city": "Navi Mumbai",
    "state": "Maharashtra",
    "pincode": "400703",
    "phone": "022-3090 0000",
    "website": "https://www.thyrocare.com",
    "timings": "24/7 Operations",
    "services": [
      "Thyroid",
      "Metabolic",
      "Cancer Markers",
      "Pathology"
    ],
    "latitude": 19.0748,
    "longitude": 73.0184,
    "is_nabl_accredited": true,
    "is_cghs_empanelled": true,
    "data_source": "Official Website"
  },
  {
    "name": "Thyrocare - Dwarka",
    "address": "Sector 6, Dwarka",
    "city": "New Delhi",
    "state": "Delhi",
    "pincode": "110075",
    "phone": "011-4500 1000",
    "website": "https://www.thyrocare.com",
    "timings": "08:00 AM - 08:00 PM",
    "services": [
      "Blood Test",
      "Thyroid",
      "Diabetes Profile"
    ],
    "latitude": 28.5921,
    "longitude": 77.046,
    "is_nabl_accredited": true,
    "is_cghs_empanelled": true,
    "data_source": "Official Website"
  },
  {
    "name": "Thyrocare - Koramangala",
    "address": "80 Feet Road, Koramangala",
    "city": "Bangalore",
    "state": "Karnataka",
    "pincode": "560034",
    "phone": "080-4500 1000",
    "website": "https://www.thyrocare.com",
    "timings": "08:00 AM - 08:00 PM",
    "services": [
      "Thyroid",
      "Full Body Checkup",
      "Pathology"
    ],
    "latitude": 12.9352,
    "longitude": 77.6245,
    "is_nabl_accredited": true,
    "is_cghs_empanelled": false,
    "data_source": "Official Website"
  },
  {
    "name": "Apollo Diagnostics - T Nagar",
    "address": "No 4, Bazullah Road, T Nagar",
    "city": "Chennai",
    "state": "Tamil Nadu",
    "pincode": "600017",
    "phone": "044-4260 7777",
    "website": "https://www.apollodiagnostics.in",
    "timings": "07:00 AM - 08:00 PM",
    "services": [
      "Radiology",
      "Pathology",
      "Echo",
      "ECG"
    ],
    "latitude": 13.0418,
    "longitude": 80.2341,
    "is_nabl_accredited": true,
    "is_cghs_empanelled": true,
    "data_source": "Official Website"
  },
  {
    "name": "Dr Lal PathLabs - Delhi Center 1",
    "address": "115, Main Road, Delhi Phase 1",
    "city": "Delhi",
    "state": "Delhi",
    "pincode": "129435",
    "phone": "011-4500 1001",
    "website": "https://www.lalpathlabs.com",
    "timings": "08:00 AM - 08:00 PM (Everyday)",
    "services": [
      "Pathology",
      "Blood Test",
      "Radiology"
    ],
    "latitude": 28.55977597415706,
    "longitude": 77.21987998431337,
    "is_nabl_accredited": true,
    "is_cghs_empanelled": true,
    "data_source": "Verified Chain Network"
  },
  {
    "name": "Dr Lal PathLabs - Delhi Center 2",
    "address": "130, Main Road, Delhi Phase 2",
    "city": "Delhi",
    "state": "Delhi",
    "pincode": "132665",
    "phone": "011-4500 1002",
    "website": "https://www.lalpathlabs.com",
    "timings": "08:00 AM - 08:00 PM (Everyday)",
    "services": [
      "Pathology",
      "Blood Test",
      "Radiology"
    ],
    "latitude": 28.573775629320217,
    "longitude": 77.2385118628417,
    "is_nabl_accredited": true,
    "is_cghs_empanelled": true,
    "data_source": "Verified Chain Network"
  },
  {
    "name": "Dr Lal PathLabs - Delhi Center 3",
    "address": "145, Main Road, Delhi Phase 3",
    "city": "Delhi",
    "state": "Delhi",
    "pincode": "128600",
    "phone": "011-4500 1003",
    "website": "https://www.lalpathlabs.com",
    "timings": "08:00 AM - 08:00 PM (Everyday)",
    "services": [
      "Pathology",
      "Blood Test",
      "Radiology"
    ],
    "latitude": 28.58481875171145,
    "longitude": 77.24374867340556,
    "is_nabl_accredited": true,
    "is_cghs_empanelled": false,
    "data_source": "Verified Chain Network"
  },
  {
    "name": "SRL Diagnostics - Delhi Center 1",
    "address": "115, Main Road, Delhi Phase 1",
    "city": "Delhi",
    "state": "Delhi",
    "pincode": "129043",
    "phone": "011-4500 1001",
    "website": "https://www.srlworld.com",
    "timings": "08:00 AM - 08:00 PM (Everyday)",
    "services": [
      "Radiology",
      "Pathology",
      "Genomics"
    ],
    "latitude": 28.657801912585082,
    "longitude": 77.21849547109314,
    "is_nabl_accredited": true,
    "is_cghs_empanelled": false,
    "data_source": "Verified Chain Network"
  },
  {
    "name": "SRL Diagnostics - Delhi Center 2",
    "address": "130, Main Road, Delhi Phase 2",
    "city": "Delhi",
    "state": "Delhi",
    "pincode": "155010",
    "phone": "011-4500 1002",
    "website": "https://www.srlworld.com",
    "timings": "08:00 AM - 08:00 PM (Everyday)",
    "services": [
      "Radiology",
      "Pathology",
      "Genomics"
    ],
    "latitude": 28.550870874258617,
    "longitude": 77.22586951100193,
    "is_nabl_accredited": true,
    "is_cghs_empanelled": true,
    "data_source": "Verified Chain Network"
  },
  {
    "name": "SRL Diagnostics - Delhi Center 3",
    "address": "145, Main Road, Delhi Phase 3",
    "city": "Delhi",
    "state": "Delhi",
    "pincode": "139929",
    "phone": "011-4500 1003",
    "website": "https://www.srlworld.com",
    "timings": "08:00 AM - 08:00 PM (Everyday)",
    "services": [
      "Radiology",
      "Pathology",
      "Genomics"
    ],
    "latitude": 28.546741070520717,
    "longitude": 77.22914512798539,
    "is_nabl_accredited": true,
    "is_cghs_empanelled": false,
    "data_source": "Verified Chain Network"
  },
  {
    "name": "Metropolis Healthcare - Delhi Center 1",
    "address": "115, Main Road, Delhi Phase 1",
    "city": "Delhi",
    "state": "Delhi",
    "pincode": "142650",
    "phone": "011-4500 1001",
    "website": "https://www.metropolisindia.com",
    "timings": "08:00 AM - 08:00 PM (Everyday)",
    "services": [
      "Pathology",
      "Biochemistry"
    ],
    "latitude": 28.62723478441393,
    "longitude": 77.25210413546455,
    "is_nabl_accredited": true,
    "is_cghs_empanelled": false,
    "data_source": "Verified Chain Network"
  },
  {
    "name": "Metropolis Healthcare - Delhi Center 2",
    "address": "130, Main Road, Delhi Phase 2",
    "city": "Delhi",
    "state": "Delhi",
    "pincode": "150573",
    "phone": "011-4500 1002",
    "website": "https://www.metropolisindia.com",
    "timings": "08:00 AM - 08:00 PM (Everyday)",
    "services": [
      "Pathology",
      "Biochemistry"
    ],
    "latitude": 28.54320721196782,
    "longitude": 77.25824262368133,
    "is_nabl_accredited": true,
    "is_cghs_empanelled": false,
    "data_source": "Verified Chain Network"
  },
  {
    "name": "Metropolis Healthcare - Delhi Center 3",
    "address": "145, Main Road, Delhi Phase 3",
    "city": "Delhi",
    "state": "Delhi",
    "pincode": "149308",
    "phone": "011-4500 1003",
    "website": "https://www.metropolisindia.com",
    "timings": "08:00 AM - 08:00 PM (Everyday)",
    "services": [
      "Pathology",
      "Biochemistry"
    ],
    "latitude": 28.620095965033467,
    "longitude": 77.26385597762595,
    "is_nabl_accredited": true,
    "is_cghs_empanelled": true,
    "data_source": "Verified Chain Network"
  },
  {
    "name": "Thyrocare - Delhi Center 1",
    "address": "115, Main Road, Delhi Phase 1",
    "city": "Delhi",
    "state": "Delhi",
    "pincode": "157743",
    "phone": "011-4500 1001",
    "website": "https://www.thyrocare.com",
    "timings": "08:00 AM - 08:00 PM (Everyday)",
    "services": [
      "Thyroid",
      "Diabetes",
      "Pathology"
    ],
    "latitude": 28.56185427583755,
    "longitude": 77.17388143666463,
    "is_nabl_accredited": true,
    "is_cghs_empanelled": true,
    "data_source": "Verified Chain Network"
  },
  {
    "name": "Thyrocare - Delhi Center 2",
    "address": "130, Main Road, Delhi Phase 2",
    "city": "Delhi",
    "state": "Delhi",
    "pincode": "122871",
    "phone": "011-4500 1002",
    "website": "https://www.thyrocare.com",
    "timings": "08:00 AM - 08:00 PM (Everyday)",
    "services": [
      "Thyroid",
      "Diabetes",
      "Pathology"
    ],
    "latitude": 28.663706832806977,
    "longitude": 77.19014785779306,
    "is_nabl_accredited": true,
    "is_cghs_empanelled": false,
    "data_source": "Verified Chain Network"
  },
  {
    "name": "Thyrocare - Delhi Center 3",
    "address": "145, Main Road, Delhi Phase 3",
    "city": "Delhi",
    "state": "Delhi",
    "pincode": "127994",
    "phone": "011-4500 1003",
    "website": "https://www.thyrocare.com",
    "timings": "08:00 AM - 08:00 PM (Everyday)",
    "services": [
      "Thyroid",
      "Diabetes",
      "Pathology"
    ],
    "latitude": 28.685093032999447,
    "longitude": 77.2347055948371,
    "is_nabl_accredited": true,
    "is_cghs_empanelled": true,
    "data_source": "Verified Chain Network"
  },
  {
    "name": "Apollo Diagnostics - Delhi Center 1",
    "address": "115, Main Road, Delhi Phase 1",
    "city": "Delhi",
    "state": "Delhi",
    "pincode": "136301",
    "phone": "011-4500 1001",
    "website": "https://www.apollodiagnostics.in",
    "timings": "08:00 AM - 08:00 PM (Everyday)",
    "services": [
      "Cardiology",
      "Pathology",
      "Radiology"
    ],
    "latitude": 28.674714681954704,
    "longitude": 77.28329333848428,
    "is_nabl_accredited": true,
    "is_cghs_empanelled": true,
    "data_source": "Verified Chain Network"
  },
  {
    "name": "Apollo Diagnostics - Delhi Center 2",
    "address": "130, Main Road, Delhi Phase 2",
    "city": "Delhi",
    "state": "Delhi",
    "pincode": "158368",
    "phone": "011-4500 1002",
    "website": "https://www.apollodiagnostics.in",
    "timings": "08:00 AM - 08:00 PM (Everyday)",
    "services": [
      "Cardiology",
      "Pathology",
      "Radiology"
    ],
    "latitude": 28.541692166079834,
    "longitude": 77.17920923632464,
    "is_nabl_accredited": true,
    "is_cghs_empanelled": false,
    "data_source": "Verified Chain Network"
  },
  {
    "name": "Apollo Diagnostics - Delhi Center 3",
    "address": "145, Main Road, Delhi Phase 3",
    "city": "Delhi",
    "state": "Delhi",
    "pincode": "124863",
    "phone": "011-4500 1003",
    "website": "https://www.apollodiagnostics.in",
    "timings": "08:00 AM - 08:00 PM (Everyday)",
    "services": [
      "Cardiology",
      "Pathology",
      "Radiology"
    ],
    "latitude": 28.55406759251034,
    "longitude": 77.22425160931029,
    "is_nabl_accredited": true,
    "is_cghs_empanelled": true,
    "data_source": "Verified Chain Network"
  },
  {
    "name": "Dr Lal PathLabs - Mumbai Center 1",
    "address": "115, Main Road, Mumbai Phase 1",
    "city": "Mumbai",
    "state": "Maharashtra",
    "pincode": "128052",
    "phone": "022-4500 1001",
    "website": "https://www.lalpathlabs.com",
    "timings": "08:00 AM - 08:00 PM (Everyday)",
    "services": [
      "Pathology",
      "Blood Test",
      "Radiology"
    ],
    "latitude": 19.102213149233737,
    "longitude": 72.92921635086364,
    "is_nabl_accredited": true,
    "is_cghs_empanelled": true,
    "data_source": "Verified Chain Network"
  },
  {
    "name": "Dr Lal PathLabs - Mumbai Center 2",
    "address": "130, Main Road, Mumbai Phase 2",
    "city": "Mumbai",
    "state": "Maharashtra",
    "pincode": "136017",
    "phone": "022-4500 1002",
    "website": "https://www.lalpathlabs.com",
    "timings": "08:00 AM - 08:00 PM (Everyday)",
    "services": [
      "Pathology",
      "Blood Test",
      "Radiology"
    ],
    "latitude": 19.140427758543108,
    "longitude": 72.86671163381473,
    "is_nabl_accredited": true,
    "is_cghs_empanelled": true,
    "data_source": "Verified Chain Network"
  },
  {
    "name": "Dr Lal PathLabs - Mumbai Center 3",
    "address": "145, Main Road, Mumbai Phase 3",
    "city": "Mumbai",
    "state": "Maharashtra",
    "pincode": "123582",
    "phone": "022-4500 1003",
    "website": "https://www.lalpathlabs.com",
    "timings": "08:00 AM - 08:00 PM (Everyday)",
    "services": [
      "Pathology",
      "Blood Test",
      "Radiology"
    ],
    "latitude": 19.127716893209804,
    "longitude": 72.87737566524174,
    "is_nabl_accredited": true,
    "is_cghs_empanelled": true,
    "data_source": "Verified Chain Network"
  },
  {
    "name": "SRL Diagnostics - Mumbai Center 1",
    "address": "115, Main Road, Mumbai Phase 1",
    "city": "Mumbai",
    "state": "Maharashtra",
    "pincode": "154682",
    "phone": "022-4500 1001",
    "website": "https://www.srlworld.com",
    "timings": "08:00 AM - 08:00 PM (Everyday)",
    "services": [
      "Radiology",
      "Pathology",
      "Genomics"
    ],
    "latitude": 19.020089750049145,
    "longitude": 72.86500981969435,
    "is_nabl_accredited": true,
    "is_cghs_empanelled": true,
    "data_source": "Verified Chain Network"
  },
  {
    "name": "SRL Diagnostics - Mumbai Center 2",
    "address": "130, Main Road, Mumbai Phase 2",
    "city": "Mumbai",
    "state": "Maharashtra",
    "pincode": "121643",
    "phone": "022-4500 1002",
    "website": "https://www.srlworld.com",
    "timings": "08:00 AM - 08:00 PM (Everyday)",
    "services": [
      "Radiology",
      "Pathology",
      "Genomics"
    ],
    "latitude": 19.070703641494237,
    "longitude": 72.8237789161666,
    "is_nabl_accredited": true,
    "is_cghs_empanelled": true,
    "data_source": "Verified Chain Network"
  },
  {
    "name": "SRL Diagnostics - Mumbai Center 3",
    "address": "145, Main Road, Mumbai Phase 3",
    "city": "Mumbai",
    "state": "Maharashtra",
    "pincode": "121479",
    "phone": "022-4500 1003",
    "website": "https://www.srlworld.com",
    "timings": "08:00 AM - 08:00 PM (Everyday)",
    "services": [
      "Radiology",
      "Pathology",
      "Genomics"
    ],
    "latitude": 19.093278440667536,
    "longitude": 72.8746245230876,
    "is_nabl_accredited": true,
    "is_cghs_empanelled": true,
    "data_source": "Verified Chain Network"
  },
  {
    "name": "Metropolis Healthcare - Mumbai Center 1",
    "address": "115, Main Road, Mumbai Phase 1",
    "city": "Mumbai",
    "state": "Maharashtra",
    "pincode": "121623",
    "phone": "022-4500 1001",
    "website": "https://www.metropolisindia.com",
    "timings": "08:00 AM - 08:00 PM (Everyday)",
    "services": [
      "Pathology",
      "Biochemistry"
    ],
    "latitude": 19.141130275861656,
    "longitude": 72.81101809974668,
    "is_nabl_accredited": true,
    "is_cghs_empanelled": false,
    "data_source": "Verified Chain Network"
  },
  {
    "name": "Metropolis Healthcare - Mumbai Center 2",
    "address": "130, Main Road, Mumbai Phase 2",
    "city": "Mumbai",
    "state": "Maharashtra",
    "pincode": "154967",
    "phone": "022-4500 1002",
    "website": "https://www.metropolisindia.com",
    "timings": "08:00 AM - 08:00 PM (Everyday)",
    "services": [
      "Pathology",
      "Biochemistry"
    ],
    "latitude": 19.10947473779431,
    "longitude": 72.84721950338466,
    "is_nabl_accredited": true,
    "is_cghs_empanelled": false,
    "data_source": "Verified Chain Network"
  },
  {
    "name": "Metropolis Healthcare - Mumbai Center 3",
    "address": "145, Main Road, Mumbai Phase 3",
    "city": "Mumbai",
    "state": "Maharashtra",
    "pincode": "137383",
    "phone": "022-4500 1003",
    "website": "https://www.metropolisindia.com",
    "timings": "08:00 AM - 08:00 PM (Everyday)",
    "services": [
      "Pathology",
      "Biochemistry"
    ],
    "latitude": 19.08828988762689,
    "longitude": 72.86853210960439,
    "is_nabl_accredited": true,
    "is_cghs_empanelled": true,
    "data_source": "Verified Chain Network"
  },
  {
    "name": "Thyrocare - Mumbai Center 1",
    "address": "115, Main Road, Mumbai Phase 1",
    "city": "Mumbai",
    "state": "Maharashtra",
    "pincode": "119643",
    "phone": "022-4500 1001",
    "website": "https://www.thyrocare.com",
    "timings": "08:00 AM - 08:00 PM (Everyday)",
    "services": [
      "Thyroid",
      "Diabetes",
      "Pathology"
    ],
    "latitude": 19.10431700964587,
    "longitude": 72.84788127079304,
    "is_nabl_accredited": true,
    "is_cghs_empanelled": true,
    "data_source": "Verified Chain Network"
  },
  {
    "name": "Thyrocare - Mumbai Center 2",
    "address": "130, Main Road, Mumbai Phase 2",
    "city": "Mumbai",
    "state": "Maharashtra",
    "pincode": "116437",
    "phone": "022-4500 1002",
    "website": "https://www.thyrocare.com",
    "timings": "08:00 AM - 08:00 PM (Everyday)",
    "services": [
      "Thyroid",
      "Diabetes",
      "Pathology"
    ],
    "latitude": 19.072212431365788,
    "longitude": 72.88451187791253,
    "is_nabl_accredited": true,
    "is_cghs_empanelled": true,
    "data_source": "Verified Chain Network"
  },
  {
    "name": "Thyrocare - Mumbai Center 3",
    "address": "145, Main Road, Mumbai Phase 3",
    "city": "Mumbai",
    "state": "Maharashtra",
    "pincode": "146680",
    "phone": "022-4500 1003",
    "website": "https://www.thyrocare.com",
    "timings": "08:00 AM - 08:00 PM (Everyday)",
    "services": [
      "Thyroid",
      "Diabetes",
      "Pathology"
    ],
    "latitude": 19.082397154359867,
    "longitude": 72.84151513088233,
    "is_nabl_accredited": true,
    "is_cghs_empanelled": false,
    "data_source": "Verified Chain Network"
  },
  {
    "name": "Apollo Diagnostics - Mumbai Center 1",
    "address": "115, Main Road, Mumbai Phase 1",
    "city": "Mumbai",
    "state": "Maharashtra",
    "pincode": "118638",
    "phone": "022-4500 1001",
    "website": "https://www.apollodiagnostics.in",
    "timings": "08:00 AM - 08:00 PM (Everyday)",
    "services": [
      "Cardiology",
      "Pathology",
      "Radiology"
    ],
    "latitude": 19.07419881468291,
    "longitude": 72.82456126338276,
    "is_nabl_accredited": true,
    "is_cghs_empanelled": true,
    "data_source": "Verified Chain Network"
  },
  {
    "name": "Apollo Diagnostics - Mumbai Center 2",
    "address": "130, Main Road, Mumbai Phase 2",
    "city": "Mumbai",
    "state": "Maharashtra",
    "pincode": "126077",
    "phone": "022-4500 1002",
    "website": "https://www.apollodiagnostics.in",
    "timings": "08:00 AM - 08:00 PM (Everyday)",
    "services": [
      "Cardiology",
      "Pathology",
      "Radiology"
    ],
    "latitude": 19.052520470423172,
    "longitude": 72.91669023136213,
    "is_nabl_accredited": true,
    "is_cghs_empanelled": true,
    "data_source": "Verified Chain Network"
  },
  {
    "name": "Apollo Diagnostics - Mumbai Center 3",
    "address": "145, Main Road, Mumbai Phase 3",
    "city": "Mumbai",
    "state": "Maharashtra",
    "pincode": "137966",
    "phone": "022-4500 1003",
    "website": "https://www.apollodiagnostics.in",
    "timings": "08:00 AM - 08:00 PM (Everyday)",
    "services": [
      "Cardiology",
      "Pathology",
      "Radiology"
    ],
    "latitude": 19.14252541173085,
    "longitude": 72.87935308093112,
    "is_nabl_accredited": true,
    "is_cghs_empanelled": true,
    "data_source": "Verified Chain Network"
  },
  {
    "name": "Dr Lal PathLabs - Bangalore Center 1",
    "address": "115, Main Road, Bangalore Phase 1",
    "city": "Bangalore",
    "state": "Karnataka",
    "pincode": "122060",
    "phone": "022-4500 1001",
    "website": "https://www.lalpathlabs.com",
    "timings": "08:00 AM - 08:00 PM (Everyday)",
    "services": [
      "Pathology",
      "Blood Test",
      "Radiology"
    ],
    "latitude": 12.977173492613616,
    "longitude": 77.66080321754006,
    "is_nabl_accredited": true,
    "is_cghs_empanelled": true,
    "data_source": "Verified Chain Network"
  },
  {
    "name": "Dr Lal PathLabs - Bangalore Center 2",
    "address": "130, Main Road, Bangalore Phase 2",
    "city": "Bangalore",
    "state": "Karnataka",
    "pincode": "152449",
    "phone": "022-4500 1002",
    "website": "https://www.lalpathlabs.com",
    "timings": "08:00 AM - 08:00 PM (Everyday)",
    "services": [
      "Pathology",
      "Blood Test",
      "Radiology"
    ],
    "latitude": 12.982693518870692,
    "longitude": 77.61658451037306,
    "is_nabl_accredited": true,
    "is_cghs_empanelled": false,
    "data_source": "Verified Chain Network"
  },
  {
    "name": "Dr Lal PathLabs - Bangalore Center 3",
    "address": "145, Main Road, Bangalore Phase 3",
    "city": "Bangalore",
    "state": "Karnataka",
    "pincode": "145187",
    "phone": "022-4500 1003",
    "website": "https://www.lalpathlabs.com",
    "timings": "08:00 AM - 08:00 PM (Everyday)",
    "services": [
      "Pathology",
      "Blood Test",
      "Radiology"
    ],
    "latitude": 12.940737940612427,
    "longitude": 77.6207315523571,
    "is_nabl_accredited": true,
    "is_cghs_empanelled": true,
    "data_source": "Verified Chain Network"
  },
  {
    "name": "SRL Diagnostics - Bangalore Center 1",
    "address": "115, Main Road, Bangalore Phase 1",
    "city": "Bangalore",
    "state": "Karnataka",
    "pincode": "132800",
    "phone": "022-4500 1001",
    "website": "https://www.srlworld.com",
    "timings": "08:00 AM - 08:00 PM (Everyday)",
    "services": [
      "Radiology",
      "Pathology",
      "Genomics"
    ],
    "latitude": 12.901668815303767,
    "longitude": 77.56568841892572,
    "is_nabl_accredited": true,
    "is_cghs_empanelled": false,
    "data_source": "Verified Chain Network"
  },
  {
    "name": "SRL Diagnostics - Bangalore Center 2",
    "address": "130, Main Road, Bangalore Phase 2",
    "city": "Bangalore",
    "state": "Karnataka",
    "pincode": "135987",
    "phone": "022-4500 1002",
    "website": "https://www.srlworld.com",
    "timings": "08:00 AM - 08:00 PM (Everyday)",
    "services": [
      "Radiology",
      "Pathology",
      "Genomics"
    ],
    "latitude": 12.918888236394196,
    "longitude": 77.5481271449707,
    "is_nabl_accredited": true,
    "is_cghs_empanelled": false,
    "data_source": "Verified Chain Network"
  },
  {
    "name": "SRL Diagnostics - Bangalore Center 3",
    "address": "145, Main Road, Bangalore Phase 3",
    "city": "Bangalore",
    "state": "Karnataka",
    "pincode": "118963",
    "phone": "022-4500 1003",
    "website": "https://www.srlworld.com",
    "timings": "08:00 AM - 08:00 PM (Everyday)",
    "services": [
      "Radiology",
      "Pathology",
      "Genomics"
    ],
    "latitude": 12.996075348885332,
    "longitude": 77.5839393262711,
    "is_nabl_accredited": true,
    "is_cghs_empanelled": true,
    "data_source": "Verified Chain Network"
  },
  {
    "name": "Metropolis Healthcare - Bangalore Center 1",
    "address": "115, Main Road, Bangalore Phase 1",
    "city": "Bangalore",
    "state": "Karnataka",
    "pincode": "143626",
    "phone": "022-4500 1001",
    "website": "https://www.metropolisindia.com",
    "timings": "08:00 AM - 08:00 PM (Everyday)",
    "services": [
      "Pathology",
      "Biochemistry"
    ],
    "latitude": 12.915027658753328,
    "longitude": 77.631818655054,
    "is_nabl_accredited": true,
    "is_cghs_empanelled": false,
    "data_source": "Verified Chain Network"
  },
  {
    "name": "Metropolis Healthcare - Bangalore Center 2",
    "address": "130, Main Road, Bangalore Phase 2",
    "city": "Bangalore",
    "state": "Karnataka",
    "pincode": "144848",
    "phone": "022-4500 1002",
    "website": "https://www.metropolisindia.com",
    "timings": "08:00 AM - 08:00 PM (Everyday)",
    "services": [
      "Pathology",
      "Biochemistry"
    ],
    "latitude": 13.034334013705902,
    "longitude": 77.56614712831023,
    "is_nabl_accredited": true,
    "is_cghs_empanelled": false,
    "data_source": "Verified Chain Network"
  },
  {
    "name": "Metropolis Healthcare - Bangalore Center 3",
    "address": "145, Main Road, Bangalore Phase 3",
    "city": "Bangalore",
    "state": "Karnataka",
    "pincode": "144605",
    "phone": "022-4500 1003",
    "website": "https://www.metropolisindia.com",
    "timings": "08:00 AM - 08:00 PM (Everyday)",
    "services": [
      "Pathology",
      "Biochemistry"
    ],
    "latitude": 13.036447150327197,
    "longitude": 77.618632216601,
    "is_nabl_accredited": true,
    "is_cghs_empanelled": false,
    "data_source": "Verified Chain Network"
  },
  {
    "name": "Thyrocare - Bangalore Center 1",
    "address": "115, Main Road, Bangalore Phase 1",
    "city": "Bangalore",
    "state": "Karnataka",
    "pincode": "117705",
    "phone": "022-4500 1001",
    "website": "https://www.thyrocare.com",
    "timings": "08:00 AM - 08:00 PM (Everyday)",
    "services": [
      "Thyroid",
      "Diabetes",
      "Pathology"
    ],
    "latitude": 13.004445810115225,
    "longitude": 77.5207842599254,
    "is_nabl_accredited": true,
    "is_cghs_empanelled": false,
    "data_source": "Verified Chain Network"
  },
  {
    "name": "Thyrocare - Bangalore Center 2",
    "address": "130, Main Road, Bangalore Phase 2",
    "city": "Bangalore",
    "state": "Karnataka",
    "pincode": "132439",
    "phone": "022-4500 1002",
    "website": "https://www.thyrocare.com",
    "timings": "08:00 AM - 08:00 PM (Everyday)",
    "services": [
      "Thyroid",
      "Diabetes",
      "Pathology"
    ],
    "latitude": 12.917691695344436,
    "longitude": 77.60280449957014,
    "is_nabl_accredited": true,
    "is_cghs_empanelled": false,
    "data_source": "Verified Chain Network"
  },
  {
    "name": "Thyrocare - Bangalore Center 3",
    "address": "145, Main Road, Bangalore Phase 3",
    "city": "Bangalore",
    "state": "Karnataka",
    "pincode": "139466",
    "phone": "022-4500 1003",
    "website": "https://www.thyrocare.com",
    "timings": "08:00 AM - 08:00 PM (Everyday)",
    "services": [
      "Thyroid",
      "Diabetes",
      "Pathology"
    ],
    "latitude": 13.014482622711066,
    "longitude": 77.66849630018284,
    "is_nabl_accredited": true,
    "is_cghs_empanelled": true,
    "data_source": "Verified Chain Network"
  },
  {
    "name": "Apollo Diagnostics - Bangalore Center 1",
    "address": "115, Main Road, Bangalore Phase 1",
    "city": "Bangalore",
    "state": "Karnataka",
    "pincode": "110076",
    "phone": "022-4500 1001",
    "website": "https://www.apollodiagnostics.in",
    "timings": "08:00 AM - 08:00 PM (Everyday)",
    "services": [
      "Cardiology",
      "Pathology",
      "Radiology"
    ],
    "latitude": 12.967198851211968,
    "longitude": 77.5594499411606,
    "is_nabl_accredited": true,
    "is_cghs_empanelled": true,
    "data_source": "Verified Chain Network"
  },
  {
    "name": "Apollo Diagnostics - Bangalore Center 2",
    "address": "130, Main Road, Bangalore Phase 2",
    "city": "Bangalore",
    "state": "Karnataka",
    "pincode": "133505",
    "phone": "022-4500 1002",
    "website": "https://www.apollodiagnostics.in",
    "timings": "08:00 AM - 08:00 PM (Everyday)",
    "services": [
      "Cardiology",
      "Pathology",
      "Radiology"
    ],
    "latitude": 12.97823723540503,
    "longitude": 77.56660173683711,
    "is_nabl_accredited": true,
    "is_cghs_empanelled": false,
    "data_source": "Verified Chain Network"
  },
  {
    "name": "Apollo Diagnostics - Bangalore Center 3",
    "address": "145, Main Road, Bangalore Phase 3",
    "city": "Bangalore",
    "state": "Karnataka",
    "pincode": "159202",
    "phone": "022-4500 1003",
    "website": "https://www.apollodiagnostics.in",
    "timings": "08:00 AM - 08:00 PM (Everyday)",
    "services": [
      "Cardiology",
      "Pathology",
      "Radiology"
    ],
    "latitude": 13.01106913505483,
    "longitude": 77.5549636208635,
    "is_nabl_accredited": true,
    "is_cghs_empanelled": false,
    "data_source": "Verified Chain Network"
  },
  {
    "name": "Dr Lal PathLabs - Chennai Center 1",
    "address": "115, Main Road, Chennai Phase 1",
    "city": "Chennai",
    "state": "Tamil Nadu",
    "pincode": "116712",
    "phone": "022-4500 1001",
    "website": "https://www.lalpathlabs.com",
    "timings": "08:00 AM - 08:00 PM (Everyday)",
    "services": [
      "Pathology",
      "Blood Test",
      "Radiology"
    ],
    "latitude": 13.129563946548846,
    "longitude": 80.26483802495775,
    "is_nabl_accredited": true,
    "is_cghs_empanelled": true,
    "data_source": "Verified Chain Network"
  },
  {
    "name": "Dr Lal PathLabs - Chennai Center 2",
    "address": "130, Main Road, Chennai Phase 2",
    "city": "Chennai",
    "state": "Tamil Nadu",
    "pincode": "117739",
    "phone": "022-4500 1002",
    "website": "https://www.lalpathlabs.com",
    "timings": "08:00 AM - 08:00 PM (Everyday)",
    "services": [
      "Pathology",
      "Blood Test",
      "Radiology"
    ],
    "latitude": 13.100569451184343,
    "longitude": 80.2843808070395,
    "is_nabl_accredited": true,
    "is_cghs_empanelled": false,
    "data_source": "Verified Chain Network"
  },
  {
    "name": "Dr Lal PathLabs - Chennai Center 3",
    "address": "145, Main Road, Chennai Phase 3",
    "city": "Chennai",
    "state": "Tamil Nadu",
    "pincode": "152020",
    "phone": "022-4500 1003",
    "website": "https://www.lalpathlabs.com",
    "timings": "08:00 AM - 08:00 PM (Everyday)",
    "services": [
      "Pathology",
      "Blood Test",
      "Radiology"
    ],
    "latitude": 13.086875220920051,
    "longitude": 80.29599153194184,
    "is_nabl_accredited": true,
    "is_cghs_empanelled": false,
    "data_source": "Verified Chain Network"
  },
  {
    "name": "SRL Diagnostics - Chennai Center 1",
    "address": "115, Main Road, Chennai Phase 1",
    "city": "Chennai",
    "state": "Tamil Nadu",
    "pincode": "117342",
    "phone": "022-4500 1001",
    "website": "https://www.srlworld.com",
    "timings": "08:00 AM - 08:00 PM (Everyday)",
    "services": [
      "Radiology",
      "Pathology",
      "Genomics"
    ],
    "latitude": 13.081658577216169,
    "longitude": 80.2551361647136,
    "is_nabl_accredited": true,
    "is_cghs_empanelled": false,
    "data_source": "Verified Chain Network"
  },
  {
    "name": "SRL Diagnostics - Chennai Center 2",
    "address": "130, Main Road, Chennai Phase 2",
    "city": "Chennai",
    "state": "Tamil Nadu",
    "pincode": "144799",
    "phone": "022-4500 1002",
    "website": "https://www.srlworld.com",
    "timings": "08:00 AM - 08:00 PM (Everyday)",
    "services": [
      "Radiology",
      "Pathology",
      "Genomics"
    ],
    "latitude": 13.098400372638036,
    "longitude": 80.30447125681869,
    "is_nabl_accredited": true,
    "is_cghs_empanelled": true,
    "data_source": "Verified Chain Network"
  },
  {
    "name": "SRL Diagnostics - Chennai Center 3",
    "address": "145, Main Road, Chennai Phase 3",
    "city": "Chennai",
    "state": "Tamil Nadu",
    "pincode": "125034",
    "phone": "022-4500 1003",
    "website": "https://www.srlworld.com",
    "timings": "08:00 AM - 08:00 PM (Everyday)",
    "services": [
      "Radiology",
      "Pathology",
      "Genomics"
    ],
    "latitude": 13.110201252949704,
    "longitude": 80.26062522150667,
    "is_nabl_accredited": true,
    "is_cghs_empanelled": false,
    "data_source": "Verified Chain Network"
  },
  {
    "name": "Metropolis Healthcare - Chennai Center 1",
    "address": "115, Main Road, Chennai Phase 1",
    "city": "Chennai",
    "state": "Tamil Nadu",
    "pincode": "128082",
    "phone": "022-4500 1001",
    "website": "https://www.metropolisindia.com",
    "timings": "08:00 AM - 08:00 PM (Everyday)",
    "services": [
      "Pathology",
      "Biochemistry"
    ],
    "latitude": 13.072069662755851,
    "longitude": 80.31993755935942,
    "is_nabl_accredited": true,
    "is_cghs_empanelled": true,
    "data_source": "Verified Chain Network"
  },
  {
    "name": "Metropolis Healthcare - Chennai Center 2",
    "address": "130, Main Road, Chennai Phase 2",
    "city": "Chennai",
    "state": "Tamil Nadu",
    "pincode": "154690",
    "phone": "022-4500 1002",
    "website": "https://www.metropolisindia.com",
    "timings": "08:00 AM - 08:00 PM (Everyday)",
    "services": [
      "Pathology",
      "Biochemistry"
    ],
    "latitude": 13.045187276131024,
    "longitude": 80.33987059736899,
    "is_nabl_accredited": true,
    "is_cghs_empanelled": true,
    "data_source": "Verified Chain Network"
  },
  {
    "name": "Metropolis Healthcare - Chennai Center 3",
    "address": "145, Main Road, Chennai Phase 3",
    "city": "Chennai",
    "state": "Tamil Nadu",
    "pincode": "152457",
    "phone": "022-4500 1003",
    "website": "https://www.metropolisindia.com",
    "timings": "08:00 AM - 08:00 PM (Everyday)",
    "services": [
      "Pathology",
      "Biochemistry"
    ],
    "latitude": 13.016296001316665,
    "longitude": 80.27874852879104,
    "is_nabl_accredited": true,
    "is_cghs_empanelled": true,
    "data_source": "Verified Chain Network"
  },
  {
    "name": "Thyrocare - Chennai Center 1",
    "address": "115, Main Road, Chennai Phase 1",
    "city": "Chennai",
    "state": "Tamil Nadu",
    "pincode": "148184",
    "phone": "022-4500 1001",
    "website": "https://www.thyrocare.com",
    "timings": "08:00 AM - 08:00 PM (Everyday)",
    "services": [
      "Thyroid",
      "Diabetes",
      "Pathology"
    ],
    "latitude": 13.122850448232015,
    "longitude": 80.24615831173878,
    "is_nabl_accredited": true,
    "is_cghs_empanelled": false,
    "data_source": "Verified Chain Network"
  },
  {
    "name": "Thyrocare - Chennai Center 2",
    "address": "130, Main Road, Chennai Phase 2",
    "city": "Chennai",
    "state": "Tamil Nadu",
    "pincode": "135802",
    "phone": "022-4500 1002",
    "website": "https://www.thyrocare.com",
    "timings": "08:00 AM - 08:00 PM (Everyday)",
    "services": [
      "Thyroid",
      "Diabetes",
      "Pathology"
    ],
    "latitude": 13.025899943692119,
    "longitude": 80.25379725468518,
    "is_nabl_accredited": true,
    "is_cghs_empanelled": true,
    "data_source": "Verified Chain Network"
  },
  {
    "name": "Thyrocare - Chennai Center 3",
    "address": "145, Main Road, Chennai Phase 3",
    "city": "Chennai",
    "state": "Tamil Nadu",
    "pincode": "117668",
    "phone": "022-4500 1003",
    "website": "https://www.thyrocare.com",
    "timings": "08:00 AM - 08:00 PM (Everyday)",
    "services": [
      "Thyroid",
      "Diabetes",
      "Pathology"
    ],
    "latitude": 13.019096865967134,
    "longitude": 80.2092755205834,
    "is_nabl_accredited": true,
    "is_cghs_empanelled": true,
    "data_source": "Verified Chain Network"
  },
  {
    "name": "Apollo Diagnostics - Chennai Center 1",
    "address": "115, Main Road, Chennai Phase 1",
    "city": "Chennai",
    "state": "Tamil Nadu",
    "pincode": "121137",
    "phone": "022-4500 1001",
    "website": "https://www.apollodiagnostics.in",
    "timings": "08:00 AM - 08:00 PM (Everyday)",
    "services": [
      "Cardiology",
      "Pathology",
      "Radiology"
    ],
    "latitude": 13.022861929916104,
    "longitude": 80.30589627952254,
    "is_nabl_accredited": true,
    "is_cghs_empanelled": true,
    "data_source": "Verified Chain Network"
  },
  {
    "name": "Apollo Diagnostics - Chennai Center 2",
    "address": "130, Main Road, Chennai Phase 2",
    "city": "Chennai",
    "state": "Tamil Nadu",
    "pincode": "124859",
    "phone": "022-4500 1002",
    "website": "https://www.apollodiagnostics.in",
    "timings": "08:00 AM - 08:00 PM (Everyday)",
    "services": [
      "Cardiology",
      "Pathology",
      "Radiology"
    ],
    "latitude": 13.012229911075849,
    "longitude": 80.2542109440924,
    "is_nabl_accredited": true,
    "is_cghs_empanelled": true,
    "data_source": "Verified Chain Network"
  },
  {
    "name": "Apollo Diagnostics - Chennai Center 3",
    "address": "145, Main Road, Chennai Phase 3",
    "city": "Chennai",
    "state": "Tamil Nadu",
    "pincode": "140396",
    "phone": "022-4500 1003",
    "website": "https://www.apollodiagnostics.in",
    "timings": "08:00 AM - 08:00 PM (Everyday)",
    "services": [
      "Cardiology",
      "Pathology",
      "Radiology"
    ],
    "latitude": 13.061646134379107,
    "longitude": 80.27876156320815,
    "is_nabl_accredited": true,
    "is_cghs_empanelled": false,
    "data_source": "Verified Chain Network"
  },
  {
    "name": "Dr Lal PathLabs - Hyderabad Center 1",
    "address": "115, Main Road, Hyderabad Phase 1",
    "city": "Hyderabad",
    "state": "Telangana",
    "pincode": "133037",
    "phone": "022-4500 1001",
    "website": "https://www.lalpathlabs.com",
    "timings": "08:00 AM - 08:00 PM (Everyday)",
    "services": [
      "Pathology",
      "Blood Test",
      "Radiology"
    ],
    "latitude": 17.316310561747375,
    "longitude": 78.51656510641446,
    "is_nabl_accredited": true,
    "is_cghs_empanelled": true,
    "data_source": "Verified Chain Network"
  },
  {
    "name": "Dr Lal PathLabs - Hyderabad Center 2",
    "address": "130, Main Road, Hyderabad Phase 2",
    "city": "Hyderabad",
    "state": "Telangana",
    "pincode": "119743",
    "phone": "022-4500 1002",
    "website": "https://www.lalpathlabs.com",
    "timings": "08:00 AM - 08:00 PM (Everyday)",
    "services": [
      "Pathology",
      "Blood Test",
      "Radiology"
    ],
    "latitude": 17.42691887708848,
    "longitude": 78.46229214161157,
    "is_nabl_accredited": true,
    "is_cghs_empanelled": true,
    "data_source": "Verified Chain Network"
  },
  {
    "name": "Dr Lal PathLabs - Hyderabad Center 3",
    "address": "145, Main Road, Hyderabad Phase 3",
    "city": "Hyderabad",
    "state": "Telangana",
    "pincode": "150905",
    "phone": "022-4500 1003",
    "website": "https://www.lalpathlabs.com",
    "timings": "08:00 AM - 08:00 PM (Everyday)",
    "services": [
      "Pathology",
      "Blood Test",
      "Radiology"
    ],
    "latitude": 17.402761170991866,
    "longitude": 78.56063217131386,
    "is_nabl_accredited": true,
    "is_cghs_empanelled": false,
    "data_source": "Verified Chain Network"
  },
  {
    "name": "SRL Diagnostics - Hyderabad Center 1",
    "address": "115, Main Road, Hyderabad Phase 1",
    "city": "Hyderabad",
    "state": "Telangana",
    "pincode": "144435",
    "phone": "022-4500 1001",
    "website": "https://www.srlworld.com",
    "timings": "08:00 AM - 08:00 PM (Everyday)",
    "services": [
      "Radiology",
      "Pathology",
      "Genomics"
    ],
    "latitude": 17.336939369284835,
    "longitude": 78.49279390901962,
    "is_nabl_accredited": true,
    "is_cghs_empanelled": true,
    "data_source": "Verified Chain Network"
  },
  {
    "name": "SRL Diagnostics - Hyderabad Center 2",
    "address": "130, Main Road, Hyderabad Phase 2",
    "city": "Hyderabad",
    "state": "Telangana",
    "pincode": "125163",
    "phone": "022-4500 1002",
    "website": "https://www.srlworld.com",
    "timings": "08:00 AM - 08:00 PM (Everyday)",
    "services": [
      "Radiology",
      "Pathology",
      "Genomics"
    ],
    "latitude": 17.35049914390629,
    "longitude": 78.54802214442482,
    "is_nabl_accredited": true,
    "is_cghs_empanelled": false,
    "data_source": "Verified Chain Network"
  },
  {
    "name": "SRL Diagnostics - Hyderabad Center 3",
    "address": "145, Main Road, Hyderabad Phase 3",
    "city": "Hyderabad",
    "state": "Telangana",
    "pincode": "149242",
    "phone": "022-4500 1003",
    "website": "https://www.srlworld.com",
    "timings": "08:00 AM - 08:00 PM (Everyday)",
    "services": [
      "Radiology",
      "Pathology",
      "Genomics"
    ],
    "latitude": 17.458450800080815,
    "longitude": 78.42806755790372,
    "is_nabl_accredited": true,
    "is_cghs_empanelled": false,
    "data_source": "Verified Chain Network"
  },
  {
    "name": "Metropolis Healthcare - Hyderabad Center 1",
    "address": "115, Main Road, Hyderabad Phase 1",
    "city": "Hyderabad",
    "state": "Telangana",
    "pincode": "122971",
    "phone": "022-4500 1001",
    "website": "https://www.metropolisindia.com",
    "timings": "08:00 AM - 08:00 PM (Everyday)",
    "services": [
      "Pathology",
      "Biochemistry"
    ],
    "latitude": 17.38453652046072,
    "longitude": 78.42708399135104,
    "is_nabl_accredited": true,
    "is_cghs_empanelled": true,
    "data_source": "Verified Chain Network"
  },
  {
    "name": "Metropolis Healthcare - Hyderabad Center 2",
    "address": "130, Main Road, Hyderabad Phase 2",
    "city": "Hyderabad",
    "state": "Telangana",
    "pincode": "122516",
    "phone": "022-4500 1002",
    "website": "https://www.metropolisindia.com",
    "timings": "08:00 AM - 08:00 PM (Everyday)",
    "services": [
      "Pathology",
      "Biochemistry"
    ],
    "latitude": 17.33064939076978,
    "longitude": 78.5450077639809,
    "is_nabl_accredited": true,
    "is_cghs_empanelled": true,
    "data_source": "Verified Chain Network"
  },
  {
    "name": "Metropolis Healthcare - Hyderabad Center 3",
    "address": "145, Main Road, Hyderabad Phase 3",
    "city": "Hyderabad",
    "state": "Telangana",
    "pincode": "157393",
    "phone": "022-4500 1003",
    "website": "https://www.metropolisindia.com",
    "timings": "08:00 AM - 08:00 PM (Everyday)",
    "services": [
      "Pathology",
      "Biochemistry"
    ],
    "latitude": 17.339496184464462,
    "longitude": 78.48040738941,
    "is_nabl_accredited": true,
    "is_cghs_empanelled": true,
    "data_source": "Verified Chain Network"
  },
  {
    "name": "Thyrocare - Hyderabad Center 1",
    "address": "115, Main Road, Hyderabad Phase 1",
    "city": "Hyderabad",
    "state": "Telangana",
    "pincode": "143438",
    "phone": "022-4500 1001",
    "website": "https://www.thyrocare.com",
    "timings": "08:00 AM - 08:00 PM (Everyday)",
    "services": [
      "Thyroid",
      "Diabetes",
      "Pathology"
    ],
    "latitude": 17.392958399406798,
    "longitude": 78.53602578708215,
    "is_nabl_accredited": true,
    "is_cghs_empanelled": false,
    "data_source": "Verified Chain Network"
  },
  {
    "name": "Thyrocare - Hyderabad Center 2",
    "address": "130, Main Road, Hyderabad Phase 2",
    "city": "Hyderabad",
    "state": "Telangana",
    "pincode": "111818",
    "phone": "022-4500 1002",
    "website": "https://www.thyrocare.com",
    "timings": "08:00 AM - 08:00 PM (Everyday)",
    "services": [
      "Thyroid",
      "Diabetes",
      "Pathology"
    ],
    "latitude": 17.342106332002484,
    "longitude": 78.49895602632239,
    "is_nabl_accredited": true,
    "is_cghs_empanelled": true,
    "data_source": "Verified Chain Network"
  },
  {
    "name": "Thyrocare - Hyderabad Center 3",
    "address": "145, Main Road, Hyderabad Phase 3",
    "city": "Hyderabad",
    "state": "Telangana",
    "pincode": "122489",
    "phone": "022-4500 1003",
    "website": "https://www.thyrocare.com",
    "timings": "08:00 AM - 08:00 PM (Everyday)",
    "services": [
      "Thyroid",
      "Diabetes",
      "Pathology"
    ],
    "latitude": 17.408205062170495,
    "longitude": 78.52355863287386,
    "is_nabl_accredited": true,
    "is_cghs_empanelled": true,
    "data_source": "Verified Chain Network"
  },
  {
    "name": "Apollo Diagnostics - Hyderabad Center 1",
    "address": "115, Main Road, Hyderabad Phase 1",
    "city": "Hyderabad",
    "state": "Telangana",
    "pincode": "156466",
    "phone": "022-4500 1001",
    "website": "https://www.apollodiagnostics.in",
    "timings": "08:00 AM - 08:00 PM (Everyday)",
    "services": [
      "Cardiology",
      "Pathology",
      "Radiology"
    ],
    "latitude": 17.35110560673398,
    "longitude": 78.48735982641637,
    "is_nabl_accredited": true,
    "is_cghs_empanelled": true,
    "data_source": "Verified Chain Network"
  },
  {
    "name": "Apollo Diagnostics - Hyderabad Center 2",
    "address": "130, Main Road, Hyderabad Phase 2",
    "city": "Hyderabad",
    "state": "Telangana",
    "pincode": "115887",
    "phone": "022-4500 1002",
    "website": "https://www.apollodiagnostics.in",
    "timings": "08:00 AM - 08:00 PM (Everyday)",
    "services": [
      "Cardiology",
      "Pathology",
      "Radiology"
    ],
    "latitude": 17.43903453621794,
    "longitude": 78.4217425808165,
    "is_nabl_accredited": true,
    "is_cghs_empanelled": false,
    "data_source": "Verified Chain Network"
  },
  {
    "name": "Apollo Diagnostics - Hyderabad Center 3",
    "address": "145, Main Road, Hyderabad Phase 3",
    "city": "Hyderabad",
    "state": "Telangana",
    "pincode": "156173",
    "phone": "022-4500 1003",
    "website": "https://www.apollodiagnostics.in",
    "timings": "08:00 AM - 08:00 PM (Everyday)",
    "services": [
      "Cardiology",
      "Pathology",
      "Radiology"
    ],
    "latitude": 17.440814166614842,
    "longitude": 78.47039240772526,
    "is_nabl_accredited": true,
    "is_cghs_empanelled": true,
    "data_source": "Verified Chain Network"
  },
  {
    "name": "Dr Lal PathLabs - Kolkata Center 1",
    "address": "115, Main Road, Kolkata Phase 1",
    "city": "Kolkata",
    "state": "West Bengal",
    "pincode": "118661",
    "phone": "022-4500 1001",
    "website": "https://www.lalpathlabs.com",
    "timings": "08:00 AM - 08:00 PM (Everyday)",
    "services": [
      "Pathology",
      "Blood Test",
      "Radiology"
    ],
    "latitude": 22.50923600096443,
    "longitude": 88.35442281344653,
    "is_nabl_accredited": true,
    "is_cghs_empanelled": true,
    "data_source": "Verified Chain Network"
  },
  {
    "name": "Dr Lal PathLabs - Kolkata Center 2",
    "address": "130, Main Road, Kolkata Phase 2",
    "city": "Kolkata",
    "state": "West Bengal",
    "pincode": "132798",
    "phone": "022-4500 1002",
    "website": "https://www.lalpathlabs.com",
    "timings": "08:00 AM - 08:00 PM (Everyday)",
    "services": [
      "Pathology",
      "Blood Test",
      "Radiology"
    ],
    "latitude": 22.541294107114382,
    "longitude": 88.4203851200888,
    "is_nabl_accredited": true,
    "is_cghs_empanelled": false,
    "data_source": "Verified Chain Network"
  },
  {
    "name": "Dr Lal PathLabs - Kolkata Center 3",
    "address": "145, Main Road, Kolkata Phase 3",
    "city": "Kolkata",
    "state": "West Bengal",
    "pincode": "118512",
    "phone": "022-4500 1003",
    "website": "https://www.lalpathlabs.com",
    "timings": "08:00 AM - 08:00 PM (Everyday)",
    "services": [
      "Pathology",
      "Blood Test",
      "Radiology"
    ],
    "latitude": 22.632990166912556,
    "longitude": 88.34260893938271,
    "is_nabl_accredited": true,
    "is_cghs_empanelled": false,
    "data_source": "Verified Chain Network"
  },
  {
    "name": "SRL Diagnostics - Kolkata Center 1",
    "address": "115, Main Road, Kolkata Phase 1",
    "city": "Kolkata",
    "state": "West Bengal",
    "pincode": "139828",
    "phone": "022-4500 1001",
    "website": "https://www.srlworld.com",
    "timings": "08:00 AM - 08:00 PM (Everyday)",
    "services": [
      "Radiology",
      "Pathology",
      "Genomics"
    ],
    "latitude": 22.502758185453793,
    "longitude": 88.38544237996038,
    "is_nabl_accredited": true,
    "is_cghs_empanelled": false,
    "data_source": "Verified Chain Network"
  },
  {
    "name": "SRL Diagnostics - Kolkata Center 2",
    "address": "130, Main Road, Kolkata Phase 2",
    "city": "Kolkata",
    "state": "West Bengal",
    "pincode": "120269",
    "phone": "022-4500 1002",
    "website": "https://www.srlworld.com",
    "timings": "08:00 AM - 08:00 PM (Everyday)",
    "services": [
      "Radiology",
      "Pathology",
      "Genomics"
    ],
    "latitude": 22.500168182237633,
    "longitude": 88.33706252086984,
    "is_nabl_accredited": true,
    "is_cghs_empanelled": false,
    "data_source": "Verified Chain Network"
  },
  {
    "name": "SRL Diagnostics - Kolkata Center 3",
    "address": "145, Main Road, Kolkata Phase 3",
    "city": "Kolkata",
    "state": "West Bengal",
    "pincode": "136039",
    "phone": "022-4500 1003",
    "website": "https://www.srlworld.com",
    "timings": "08:00 AM - 08:00 PM (Everyday)",
    "services": [
      "Radiology",
      "Pathology",
      "Genomics"
    ],
    "latitude": 22.618274526534385,
    "longitude": 88.34468129456172,
    "is_nabl_accredited": true,
    "is_cghs_empanelled": true,
    "data_source": "Verified Chain Network"
  },
  {
    "name": "Metropolis Healthcare - Kolkata Center 1",
    "address": "115, Main Road, Kolkata Phase 1",
    "city": "Kolkata",
    "state": "West Bengal",
    "pincode": "127465",
    "phone": "022-4500 1001",
    "website": "https://www.metropolisindia.com",
    "timings": "08:00 AM - 08:00 PM (Everyday)",
    "services": [
      "Pathology",
      "Biochemistry"
    ],
    "latitude": 22.533315986418234,
    "longitude": 88.29114782347038,
    "is_nabl_accredited": true,
    "is_cghs_empanelled": true,
    "data_source": "Verified Chain Network"
  },
  {
    "name": "Metropolis Healthcare - Kolkata Center 2",
    "address": "130, Main Road, Kolkata Phase 2",
    "city": "Kolkata",
    "state": "West Bengal",
    "pincode": "129086",
    "phone": "022-4500 1002",
    "website": "https://www.metropolisindia.com",
    "timings": "08:00 AM - 08:00 PM (Everyday)",
    "services": [
      "Pathology",
      "Biochemistry"
    ],
    "latitude": 22.561935654511597,
    "longitude": 88.3474573155099,
    "is_nabl_accredited": true,
    "is_cghs_empanelled": true,
    "data_source": "Verified Chain Network"
  },
  {
    "name": "Metropolis Healthcare - Kolkata Center 3",
    "address": "145, Main Road, Kolkata Phase 3",
    "city": "Kolkata",
    "state": "West Bengal",
    "pincode": "135476",
    "phone": "022-4500 1003",
    "website": "https://www.metropolisindia.com",
    "timings": "08:00 AM - 08:00 PM (Everyday)",
    "services": [
      "Pathology",
      "Biochemistry"
    ],
    "latitude": 22.61432969919382,
    "longitude": 88.3598292871179,
    "is_nabl_accredited": true,
    "is_cghs_empanelled": false,
    "data_source": "Verified Chain Network"
  },
  {
    "name": "Thyrocare - Kolkata Center 1",
    "address": "115, Main Road, Kolkata Phase 1",
    "city": "Kolkata",
    "state": "West Bengal",
    "pincode": "130942",
    "phone": "022-4500 1001",
    "website": "https://www.thyrocare.com",
    "timings": "08:00 AM - 08:00 PM (Everyday)",
    "services": [
      "Thyroid",
      "Diabetes",
      "Pathology"
    ],
    "latitude": 22.60545231989892,
    "longitude": 88.40261654392445,
    "is_nabl_accredited": true,
    "is_cghs_empanelled": true,
    "data_source": "Verified Chain Network"
  },
  {
    "name": "Thyrocare - Kolkata Center 2",
    "address": "130, Main Road, Kolkata Phase 2",
    "city": "Kolkata",
    "state": "West Bengal",
    "pincode": "115658",
    "phone": "022-4500 1002",
    "website": "https://www.thyrocare.com",
    "timings": "08:00 AM - 08:00 PM (Everyday)",
    "services": [
      "Thyroid",
      "Diabetes",
      "Pathology"
    ],
    "latitude": 22.536968019266357,
    "longitude": 88.29421829010157,
    "is_nabl_accredited": true,
    "is_cghs_empanelled": true,
    "data_source": "Verified Chain Network"
  },
  {
    "name": "Thyrocare - Kolkata Center 3",
    "address": "145, Main Road, Kolkata Phase 3",
    "city": "Kolkata",
    "state": "West Bengal",
    "pincode": "144297",
    "phone": "022-4500 1003",
    "website": "https://www.thyrocare.com",
    "timings": "08:00 AM - 08:00 PM (Everyday)",
    "services": [
      "Thyroid",
      "Diabetes",
      "Pathology"
    ],
    "latitude": 22.621076705970875,
    "longitude": 88.3216825002485,
    "is_nabl_accredited": true,
    "is_cghs_empanelled": true,
    "data_source": "Verified Chain Network"
  },
  {
    "name": "Apollo Diagnostics - Kolkata Center 1",
    "address": "115, Main Road, Kolkata Phase 1",
    "city": "Kolkata",
    "state": "West Bengal",
    "pincode": "118086",
    "phone": "022-4500 1001",
    "website": "https://www.apollodiagnostics.in",
    "timings": "08:00 AM - 08:00 PM (Everyday)",
    "services": [
      "Cardiology",
      "Pathology",
      "Radiology"
    ],
    "latitude": 22.616294425089013,
    "longitude": 88.31592831275535,
    "is_nabl_accredited": true,
    "is_cghs_empanelled": false,
    "data_source": "Verified Chain Network"
  },
  {
    "name": "Apollo Diagnostics - Kolkata Center 2",
    "address": "130, Main Road, Kolkata Phase 2",
    "city": "Kolkata",
    "state": "West Bengal",
    "pincode": "147483",
    "phone": "022-4500 1002",
    "website": "https://www.apollodiagnostics.in",
    "timings": "08:00 AM - 08:00 PM (Everyday)",
    "services": [
      "Cardiology",
      "Pathology",
      "Radiology"
    ],
    "latitude": 22.5349260989687,
    "longitude": 88.38877105425746,
    "is_nabl_accredited": true,
    "is_cghs_empanelled": true,
    "data_source": "Verified Chain Network"
  },
  {
    "name": "Apollo Diagnostics - Kolkata Center 3",
    "address": "145, Main Road, Kolkata Phase 3",
    "city": "Kolkata",
    "state": "West Bengal",
    "pincode": "112029",
    "phone": "022-4500 1003",
    "website": "https://www.apollodiagnostics.in",
    "timings": "08:00 AM - 08:00 PM (Everyday)",
    "services": [
      "Cardiology",
      "Pathology",
      "Radiology"
    ],
    "latitude": 22.54264930564972,
    "longitude": 88.31694039260596,
    "is_nabl_accredited": true,
    "is_cghs_empanelled": true,
    "data_source": "Verified Chain Network"
  },
  {
    "name": "Dr Lal PathLabs - Pune Center 1",
    "address": "115, Main Road, Pune Phase 1",
    "city": "Pune",
    "state": "Maharashtra",
    "pincode": "119779",
    "phone": "022-4500 1001",
    "website": "https://www.lalpathlabs.com",
    "timings": "08:00 AM - 08:00 PM (Everyday)",
    "services": [
      "Pathology",
      "Blood Test",
      "Radiology"
    ],
    "latitude": 18.47911073295302,
    "longitude": 73.9014234352902,
    "is_nabl_accredited": true,
    "is_cghs_empanelled": false,
    "data_source": "Verified Chain Network"
  },
  {
    "name": "Dr Lal PathLabs - Pune Center 2",
    "address": "130, Main Road, Pune Phase 2",
    "city": "Pune",
    "state": "Maharashtra",
    "pincode": "152760",
    "phone": "022-4500 1002",
    "website": "https://www.lalpathlabs.com",
    "timings": "08:00 AM - 08:00 PM (Everyday)",
    "services": [
      "Pathology",
      "Blood Test",
      "Radiology"
    ],
    "latitude": 18.529224368601692,
    "longitude": 73.78556134969048,
    "is_nabl_accredited": true,
    "is_cghs_empanelled": false,
    "data_source": "Verified Chain Network"
  },
  {
    "name": "Dr Lal PathLabs - Pune Center 3",
    "address": "145, Main Road, Pune Phase 3",
    "city": "Pune",
    "state": "Maharashtra",
    "pincode": "110517",
    "phone": "022-4500 1003",
    "website": "https://www.lalpathlabs.com",
    "timings": "08:00 AM - 08:00 PM (Everyday)",
    "services": [
      "Pathology",
      "Blood Test",
      "Radiology"
    ],
    "latitude": 18.515968188666914,
    "longitude": 73.82786053468004,
    "is_nabl_accredited": true,
    "is_cghs_empanelled": true,
    "data_source": "Verified Chain Network"
  },
  {
    "name": "SRL Diagnostics - Pune Center 1",
    "address": "115, Main Road, Pune Phase 1",
    "city": "Pune",
    "state": "Maharashtra",
    "pincode": "132761",
    "phone": "022-4500 1001",
    "website": "https://www.srlworld.com",
    "timings": "08:00 AM - 08:00 PM (Everyday)",
    "services": [
      "Radiology",
      "Pathology",
      "Genomics"
    ],
    "latitude": 18.554972073475998,
    "longitude": 73.82315766263562,
    "is_nabl_accredited": true,
    "is_cghs_empanelled": false,
    "data_source": "Verified Chain Network"
  },
  {
    "name": "SRL Diagnostics - Pune Center 2",
    "address": "130, Main Road, Pune Phase 2",
    "city": "Pune",
    "state": "Maharashtra",
    "pincode": "156066",
    "phone": "022-4500 1002",
    "website": "https://www.srlworld.com",
    "timings": "08:00 AM - 08:00 PM (Everyday)",
    "services": [
      "Radiology",
      "Pathology",
      "Genomics"
    ],
    "latitude": 18.446894129147214,
    "longitude": 73.80285740421924,
    "is_nabl_accredited": true,
    "is_cghs_empanelled": true,
    "data_source": "Verified Chain Network"
  },
  {
    "name": "SRL Diagnostics - Pune Center 3",
    "address": "145, Main Road, Pune Phase 3",
    "city": "Pune",
    "state": "Maharashtra",
    "pincode": "110138",
    "phone": "022-4500 1003",
    "website": "https://www.srlworld.com",
    "timings": "08:00 AM - 08:00 PM (Everyday)",
    "services": [
      "Radiology",
      "Pathology",
      "Genomics"
    ],
    "latitude": 18.53151074811272,
    "longitude": 73.86675642437949,
    "is_nabl_accredited": true,
    "is_cghs_empanelled": false,
    "data_source": "Verified Chain Network"
  },
  {
    "name": "Metropolis Healthcare - Pune Center 1",
    "address": "115, Main Road, Pune Phase 1",
    "city": "Pune",
    "state": "Maharashtra",
    "pincode": "145172",
    "phone": "022-4500 1001",
    "website": "https://www.metropolisindia.com",
    "timings": "08:00 AM - 08:00 PM (Everyday)",
    "services": [
      "Pathology",
      "Biochemistry"
    ],
    "latitude": 18.54688135721893,
    "longitude": 73.93169779883246,
    "is_nabl_accredited": true,
    "is_cghs_empanelled": true,
    "data_source": "Verified Chain Network"
  },
  {
    "name": "Metropolis Healthcare - Pune Center 2",
    "address": "130, Main Road, Pune Phase 2",
    "city": "Pune",
    "state": "Maharashtra",
    "pincode": "142628",
    "phone": "022-4500 1002",
    "website": "https://www.metropolisindia.com",
    "timings": "08:00 AM - 08:00 PM (Everyday)",
    "services": [
      "Pathology",
      "Biochemistry"
    ],
    "latitude": 18.512149107863056,
    "longitude": 73.91201784355762,
    "is_nabl_accredited": true,
    "is_cghs_empanelled": false,
    "data_source": "Verified Chain Network"
  },
  {
    "name": "Metropolis Healthcare - Pune Center 3",
    "address": "145, Main Road, Pune Phase 3",
    "city": "Pune",
    "state": "Maharashtra",
    "pincode": "141036",
    "phone": "022-4500 1003",
    "website": "https://www.metropolisindia.com",
    "timings": "08:00 AM - 08:00 PM (Everyday)",
    "services": [
      "Pathology",
      "Biochemistry"
    ],
    "latitude": 18.450642658193534,
    "longitude": 73.90732882754355,
    "is_nabl_accredited": true,
    "is_cghs_empanelled": true,
    "data_source": "Verified Chain Network"
  },
  {
    "name": "Thyrocare - Pune Center 1",
    "address": "115, Main Road, Pune Phase 1",
    "city": "Pune",
    "state": "Maharashtra",
    "pincode": "141362",
    "phone": "022-4500 1001",
    "website": "https://www.thyrocare.com",
    "timings": "08:00 AM - 08:00 PM (Everyday)",
    "services": [
      "Thyroid",
      "Diabetes",
      "Pathology"
    ],
    "latitude": 18.578907697477263,
    "longitude": 73.82752636450549,
    "is_nabl_accredited": true,
    "is_cghs_empanelled": false,
    "data_source": "Verified Chain Network"
  },
  {
    "name": "Thyrocare - Pune Center 2",
    "address": "130, Main Road, Pune Phase 2",
    "city": "Pune",
    "state": "Maharashtra",
    "pincode": "123224",
    "phone": "022-4500 1002",
    "website": "https://www.thyrocare.com",
    "timings": "08:00 AM - 08:00 PM (Everyday)",
    "services": [
      "Thyroid",
      "Diabetes",
      "Pathology"
    ],
    "latitude": 18.576612174374983,
    "longitude": 73.82668507645602,
    "is_nabl_accredited": true,
    "is_cghs_empanelled": false,
    "data_source": "Verified Chain Network"
  },
  {
    "name": "Thyrocare - Pune Center 3",
    "address": "145, Main Road, Pune Phase 3",
    "city": "Pune",
    "state": "Maharashtra",
    "pincode": "134485",
    "phone": "022-4500 1003",
    "website": "https://www.thyrocare.com",
    "timings": "08:00 AM - 08:00 PM (Everyday)",
    "services": [
      "Thyroid",
      "Diabetes",
      "Pathology"
    ],
    "latitude": 18.58028236651659,
    "longitude": 73.87011508721557,
    "is_nabl_accredited": true,
    "is_cghs_empanelled": true,
    "data_source": "Verified Chain Network"
  },
  {
    "name": "Apollo Diagnostics - Pune Center 1",
    "address": "115, Main Road, Pune Phase 1",
    "city": "Pune",
    "state": "Maharashtra",
    "pincode": "153571",
    "phone": "022-4500 1001",
    "website": "https://www.apollodiagnostics.in",
    "timings": "08:00 AM - 08:00 PM (Everyday)",
    "services": [
      "Cardiology",
      "Pathology",
      "Radiology"
    ],
    "latitude": 18.471330561674435,
    "longitude": 73.88948478863554,
    "is_nabl_accredited": true,
    "is_cghs_empanelled": true,
    "data_source": "Verified Chain Network"
  },
  {
    "name": "Apollo Diagnostics - Pune Center 2",
    "address": "130, Main Road, Pune Phase 2",
    "city": "Pune",
    "state": "Maharashtra",
    "pincode": "132226",
    "phone": "022-4500 1002",
    "website": "https://www.apollodiagnostics.in",
    "timings": "08:00 AM - 08:00 PM (Everyday)",
    "services": [
      "Cardiology",
      "Pathology",
      "Radiology"
    ],
    "latitude": 18.495527105414162,
    "longitude": 73.7821702474376,
    "is_nabl_accredited": true,
    "is_cghs_empanelled": true,
    "data_source": "Verified Chain Network"
  },
  {
    "name": "Apollo Diagnostics - Pune Center 3",
    "address": "145, Main Road, Pune Phase 3",
    "city": "Pune",
    "state": "Maharashtra",
    "pincode": "132086",
    "phone": "022-4500 1003",
    "website": "https://www.apollodiagnostics.in",
    "timings": "08:00 AM - 08:00 PM (Everyday)",
    "services": [
      "Cardiology",
      "Pathology",
      "Radiology"
    ],
    "latitude": 18.487964628458105,
    "longitude": 73.89706012869183,
    "is_nabl_accredited": true,
    "is_cghs_empanelled": false,
    "data_source": "Verified Chain Network"
  },
  {
    "name": "Dr Lal PathLabs - Ahmedabad Center 1",
    "address": "115, Main Road, Ahmedabad Phase 1",
    "city": "Ahmedabad",
    "state": "Gujarat",
    "pincode": "145564",
    "phone": "022-4500 1001",
    "website": "https://www.lalpathlabs.com",
    "timings": "08:00 AM - 08:00 PM (Everyday)",
    "services": [
      "Pathology",
      "Blood Test",
      "Radiology"
    ],
    "latitude": 22.98395672337417,
    "longitude": 72.61410071839965,
    "is_nabl_accredited": true,
    "is_cghs_empanelled": true,
    "data_source": "Verified Chain Network"
  },
  {
    "name": "Dr Lal PathLabs - Ahmedabad Center 2",
    "address": "130, Main Road, Ahmedabad Phase 2",
    "city": "Ahmedabad",
    "state": "Gujarat",
    "pincode": "155458",
    "phone": "022-4500 1002",
    "website": "https://www.lalpathlabs.com",
    "timings": "08:00 AM - 08:00 PM (Everyday)",
    "services": [
      "Pathology",
      "Blood Test",
      "Radiology"
    ],
    "latitude": 23.044658101817607,
    "longitude": 72.5232718787027,
    "is_nabl_accredited": true,
    "is_cghs_empanelled": true,
    "data_source": "Verified Chain Network"
  },
  {
    "name": "Dr Lal PathLabs - Ahmedabad Center 3",
    "address": "145, Main Road, Ahmedabad Phase 3",
    "city": "Ahmedabad",
    "state": "Gujarat",
    "pincode": "115801",
    "phone": "022-4500 1003",
    "website": "https://www.lalpathlabs.com",
    "timings": "08:00 AM - 08:00 PM (Everyday)",
    "services": [
      "Pathology",
      "Blood Test",
      "Radiology"
    ],
    "latitude": 23.093498491003487,
    "longitude": 72.51449201797969,
    "is_nabl_accredited": true,
    "is_cghs_empanelled": true,
    "data_source": "Verified Chain Network"
  },
  {
    "name": "SRL Diagnostics - Ahmedabad Center 1",
    "address": "115, Main Road, Ahmedabad Phase 1",
    "city": "Ahmedabad",
    "state": "Gujarat",
    "pincode": "156008",
    "phone": "022-4500 1001",
    "website": "https://www.srlworld.com",
    "timings": "08:00 AM - 08:00 PM (Everyday)",
    "services": [
      "Radiology",
      "Pathology",
      "Genomics"
    ],
    "latitude": 22.9582150037925,
    "longitude": 72.6089768582735,
    "is_nabl_accredited": true,
    "is_cghs_empanelled": false,
    "data_source": "Verified Chain Network"
  },
  {
    "name": "SRL Diagnostics - Ahmedabad Center 2",
    "address": "130, Main Road, Ahmedabad Phase 2",
    "city": "Ahmedabad",
    "state": "Gujarat",
    "pincode": "147028",
    "phone": "022-4500 1002",
    "website": "https://www.srlworld.com",
    "timings": "08:00 AM - 08:00 PM (Everyday)",
    "services": [
      "Radiology",
      "Pathology",
      "Genomics"
    ],
    "latitude": 22.966611751267653,
    "longitude": 72.59440953080238,
    "is_nabl_accredited": true,
    "is_cghs_empanelled": false,
    "data_source": "Verified Chain Network"
  },
  {
    "name": "SRL Diagnostics - Ahmedabad Center 3",
    "address": "145, Main Road, Ahmedabad Phase 3",
    "city": "Ahmedabad",
    "state": "Gujarat",
    "pincode": "130717",
    "phone": "022-4500 1003",
    "website": "https://www.srlworld.com",
    "timings": "08:00 AM - 08:00 PM (Everyday)",
    "services": [
      "Radiology",
      "Pathology",
      "Genomics"
    ],
    "latitude": 23.041084524715355,
    "longitude": 72.58179995058252,
    "is_nabl_accredited": true,
    "is_cghs_empanelled": true,
    "data_source": "Verified Chain Network"
  },
  {
    "name": "Metropolis Healthcare - Ahmedabad Center 1",
    "address": "115, Main Road, Ahmedabad Phase 1",
    "city": "Ahmedabad",
    "state": "Gujarat",
    "pincode": "118636",
    "phone": "022-4500 1001",
    "website": "https://www.metropolisindia.com",
    "timings": "08:00 AM - 08:00 PM (Everyday)",
    "services": [
      "Pathology",
      "Biochemistry"
    ],
    "latitude": 22.96800233359115,
    "longitude": 72.54399827330448,
    "is_nabl_accredited": true,
    "is_cghs_empanelled": true,
    "data_source": "Verified Chain Network"
  },
  {
    "name": "Metropolis Healthcare - Ahmedabad Center 2",
    "address": "130, Main Road, Ahmedabad Phase 2",
    "city": "Ahmedabad",
    "state": "Gujarat",
    "pincode": "153972",
    "phone": "022-4500 1002",
    "website": "https://www.metropolisindia.com",
    "timings": "08:00 AM - 08:00 PM (Everyday)",
    "services": [
      "Pathology",
      "Biochemistry"
    ],
    "latitude": 23.047157123759128,
    "longitude": 72.57769027645683,
    "is_nabl_accredited": true,
    "is_cghs_empanelled": true,
    "data_source": "Verified Chain Network"
  },
  {
    "name": "Metropolis Healthcare - Ahmedabad Center 3",
    "address": "145, Main Road, Ahmedabad Phase 3",
    "city": "Ahmedabad",
    "state": "Gujarat",
    "pincode": "122979",
    "phone": "022-4500 1003",
    "website": "https://www.metropolisindia.com",
    "timings": "08:00 AM - 08:00 PM (Everyday)",
    "services": [
      "Pathology",
      "Biochemistry"
    ],
    "latitude": 22.94784370145438,
    "longitude": 72.59796118159959,
    "is_nabl_accredited": true,
    "is_cghs_empanelled": true,
    "data_source": "Verified Chain Network"
  },
  {
    "name": "Thyrocare - Ahmedabad Center 1",
    "address": "115, Main Road, Ahmedabad Phase 1",
    "city": "Ahmedabad",
    "state": "Gujarat",
    "pincode": "124275",
    "phone": "022-4500 1001",
    "website": "https://www.thyrocare.com",
    "timings": "08:00 AM - 08:00 PM (Everyday)",
    "services": [
      "Thyroid",
      "Diabetes",
      "Pathology"
    ],
    "latitude": 22.99569855543778,
    "longitude": 72.4996831869187,
    "is_nabl_accredited": true,
    "is_cghs_empanelled": true,
    "data_source": "Verified Chain Network"
  },
  {
    "name": "Thyrocare - Ahmedabad Center 2",
    "address": "130, Main Road, Ahmedabad Phase 2",
    "city": "Ahmedabad",
    "state": "Gujarat",
    "pincode": "144547",
    "phone": "022-4500 1002",
    "website": "https://www.thyrocare.com",
    "timings": "08:00 AM - 08:00 PM (Everyday)",
    "services": [
      "Thyroid",
      "Diabetes",
      "Pathology"
    ],
    "latitude": 23.057921598757634,
    "longitude": 72.61977726713212,
    "is_nabl_accredited": true,
    "is_cghs_empanelled": false,
    "data_source": "Verified Chain Network"
  },
  {
    "name": "Thyrocare - Ahmedabad Center 3",
    "address": "145, Main Road, Ahmedabad Phase 3",
    "city": "Ahmedabad",
    "state": "Gujarat",
    "pincode": "149612",
    "phone": "022-4500 1003",
    "website": "https://www.thyrocare.com",
    "timings": "08:00 AM - 08:00 PM (Everyday)",
    "services": [
      "Thyroid",
      "Diabetes",
      "Pathology"
    ],
    "latitude": 23.02239265213874,
    "longitude": 72.5006581086702,
    "is_nabl_accredited": true,
    "is_cghs_empanelled": true,
    "data_source": "Verified Chain Network"
  },
  {
    "name": "Apollo Diagnostics - Ahmedabad Center 1",
    "address": "115, Main Road, Ahmedabad Phase 1",
    "city": "Ahmedabad",
    "state": "Gujarat",
    "pincode": "114898",
    "phone": "022-4500 1001",
    "website": "https://www.apollodiagnostics.in",
    "timings": "08:00 AM - 08:00 PM (Everyday)",
    "services": [
      "Cardiology",
      "Pathology",
      "Radiology"
    ],
    "latitude": 23.086424023042,
    "longitude": 72.52629189227058,
    "is_nabl_accredited": true,
    "is_cghs_empanelled": false,
    "data_source": "Verified Chain Network"
  },
  {
    "name": "Apollo Diagnostics - Ahmedabad Center 2",
    "address": "130, Main Road, Ahmedabad Phase 2",
    "city": "Ahmedabad",
    "state": "Gujarat",
    "pincode": "148114",
    "phone": "022-4500 1002",
    "website": "https://www.apollodiagnostics.in",
    "timings": "08:00 AM - 08:00 PM (Everyday)",
    "services": [
      "Cardiology",
      "Pathology",
      "Radiology"
    ],
    "latitude": 23.019323096086747,
    "longitude": 72.63296818237941,
    "is_nabl_accredited": true,
    "is_cghs_empanelled": true,
    "data_source": "Verified Chain Network"
  },
  {
    "name": "Apollo Diagnostics - Ahmedabad Center 3",
    "address": "145, Main Road, Ahmedabad Phase 3",
    "city": "Ahmedabad",
    "state": "Gujarat",
    "pincode": "135158",
    "phone": "022-4500 1003",
    "website": "https://www.apollodiagnostics.in",
    "timings": "08:00 AM - 08:00 PM (Everyday)",
    "services": [
      "Cardiology",
      "Pathology",
      "Radiology"
    ],
    "latitude": 23.05691433794469,
    "longitude": 72.6040244155253,
    "is_nabl_accredited": true,
    "is_cghs_empanelled": false,
    "data_source": "Verified Chain Network"
  },
  {
    "name": "Dr Lal PathLabs - Jaipur Center 1",
    "address": "115, Main Road, Jaipur Phase 1",
    "city": "Jaipur",
    "state": "Rajasthan",
    "pincode": "146221",
    "phone": "022-4500 1001",
    "website": "https://www.lalpathlabs.com",
    "timings": "08:00 AM - 08:00 PM (Everyday)",
    "services": [
      "Pathology",
      "Blood Test",
      "Radiology"
    ],
    "latitude": 26.840457340891135,
    "longitude": 75.74232977178075,
    "is_nabl_accredited": true,
    "is_cghs_empanelled": false,
    "data_source": "Verified Chain Network"
  },
  {
    "name": "Dr Lal PathLabs - Jaipur Center 2",
    "address": "130, Main Road, Jaipur Phase 2",
    "city": "Jaipur",
    "state": "Rajasthan",
    "pincode": "122949",
    "phone": "022-4500 1002",
    "website": "https://www.lalpathlabs.com",
    "timings": "08:00 AM - 08:00 PM (Everyday)",
    "services": [
      "Pathology",
      "Blood Test",
      "Radiology"
    ],
    "latitude": 26.971202131206216,
    "longitude": 75.80474659364798,
    "is_nabl_accredited": true,
    "is_cghs_empanelled": false,
    "data_source": "Verified Chain Network"
  },
  {
    "name": "Dr Lal PathLabs - Jaipur Center 3",
    "address": "145, Main Road, Jaipur Phase 3",
    "city": "Jaipur",
    "state": "Rajasthan",
    "pincode": "153939",
    "phone": "022-4500 1003",
    "website": "https://www.lalpathlabs.com",
    "timings": "08:00 AM - 08:00 PM (Everyday)",
    "services": [
      "Pathology",
      "Blood Test",
      "Radiology"
    ],
    "latitude": 26.944767772700885,
    "longitude": 75.78944950137988,
    "is_nabl_accredited": true,
    "is_cghs_empanelled": true,
    "data_source": "Verified Chain Network"
  },
  {
    "name": "SRL Diagnostics - Jaipur Center 1",
    "address": "115, Main Road, Jaipur Phase 1",
    "city": "Jaipur",
    "state": "Rajasthan",
    "pincode": "159052",
    "phone": "022-4500 1001",
    "website": "https://www.srlworld.com",
    "timings": "08:00 AM - 08:00 PM (Everyday)",
    "services": [
      "Radiology",
      "Pathology",
      "Genomics"
    ],
    "latitude": 26.94881644413928,
    "longitude": 75.72438060357845,
    "is_nabl_accredited": true,
    "is_cghs_empanelled": true,
    "data_source": "Verified Chain Network"
  },
  {
    "name": "SRL Diagnostics - Jaipur Center 2",
    "address": "130, Main Road, Jaipur Phase 2",
    "city": "Jaipur",
    "state": "Rajasthan",
    "pincode": "136184",
    "phone": "022-4500 1002",
    "website": "https://www.srlworld.com",
    "timings": "08:00 AM - 08:00 PM (Everyday)",
    "services": [
      "Radiology",
      "Pathology",
      "Genomics"
    ],
    "latitude": 26.97369271590476,
    "longitude": 75.71564693942504,
    "is_nabl_accredited": true,
    "is_cghs_empanelled": false,
    "data_source": "Verified Chain Network"
  },
  {
    "name": "SRL Diagnostics - Jaipur Center 3",
    "address": "145, Main Road, Jaipur Phase 3",
    "city": "Jaipur",
    "state": "Rajasthan",
    "pincode": "115773",
    "phone": "022-4500 1003",
    "website": "https://www.srlworld.com",
    "timings": "08:00 AM - 08:00 PM (Everyday)",
    "services": [
      "Radiology",
      "Pathology",
      "Genomics"
    ],
    "latitude": 26.96341330643488,
    "longitude": 75.73513618313262,
    "is_nabl_accredited": true,
    "is_cghs_empanelled": false,
    "data_source": "Verified Chain Network"
  },
  {
    "name": "Metropolis Healthcare - Jaipur Center 1",
    "address": "115, Main Road, Jaipur Phase 1",
    "city": "Jaipur",
    "state": "Rajasthan",
    "pincode": "121575",
    "phone": "022-4500 1001",
    "website": "https://www.metropolisindia.com",
    "timings": "08:00 AM - 08:00 PM (Everyday)",
    "services": [
      "Pathology",
      "Biochemistry"
    ],
    "latitude": 26.91977417303971,
    "longitude": 75.71522462169942,
    "is_nabl_accredited": true,
    "is_cghs_empanelled": true,
    "data_source": "Verified Chain Network"
  },
  {
    "name": "Metropolis Healthcare - Jaipur Center 2",
    "address": "130, Main Road, Jaipur Phase 2",
    "city": "Jaipur",
    "state": "Rajasthan",
    "pincode": "154691",
    "phone": "022-4500 1002",
    "website": "https://www.metropolisindia.com",
    "timings": "08:00 AM - 08:00 PM (Everyday)",
    "services": [
      "Pathology",
      "Biochemistry"
    ],
    "latitude": 26.890526126309272,
    "longitude": 75.86186772186967,
    "is_nabl_accredited": true,
    "is_cghs_empanelled": true,
    "data_source": "Verified Chain Network"
  },
  {
    "name": "Metropolis Healthcare - Jaipur Center 3",
    "address": "145, Main Road, Jaipur Phase 3",
    "city": "Jaipur",
    "state": "Rajasthan",
    "pincode": "111833",
    "phone": "022-4500 1003",
    "website": "https://www.metropolisindia.com",
    "timings": "08:00 AM - 08:00 PM (Everyday)",
    "services": [
      "Pathology",
      "Biochemistry"
    ],
    "latitude": 26.96733370717775,
    "longitude": 75.79591706766918,
    "is_nabl_accredited": true,
    "is_cghs_empanelled": false,
    "data_source": "Verified Chain Network"
  },
  {
    "name": "Thyrocare - Jaipur Center 1",
    "address": "115, Main Road, Jaipur Phase 1",
    "city": "Jaipur",
    "state": "Rajasthan",
    "pincode": "153840",
    "phone": "022-4500 1001",
    "website": "https://www.thyrocare.com",
    "timings": "08:00 AM - 08:00 PM (Everyday)",
    "services": [
      "Thyroid",
      "Diabetes",
      "Pathology"
    ],
    "latitude": 26.981996892993322,
    "longitude": 75.75858229161949,
    "is_nabl_accredited": true,
    "is_cghs_empanelled": true,
    "data_source": "Verified Chain Network"
  },
  {
    "name": "Thyrocare - Jaipur Center 2",
    "address": "130, Main Road, Jaipur Phase 2",
    "city": "Jaipur",
    "state": "Rajasthan",
    "pincode": "125987",
    "phone": "022-4500 1002",
    "website": "https://www.thyrocare.com",
    "timings": "08:00 AM - 08:00 PM (Everyday)",
    "services": [
      "Thyroid",
      "Diabetes",
      "Pathology"
    ],
    "latitude": 26.890299912100716,
    "longitude": 75.73040235531074,
    "is_nabl_accredited": true,
    "is_cghs_empanelled": true,
    "data_source": "Verified Chain Network"
  },
  {
    "name": "Thyrocare - Jaipur Center 3",
    "address": "145, Main Road, Jaipur Phase 3",
    "city": "Jaipur",
    "state": "Rajasthan",
    "pincode": "118534",
    "phone": "022-4500 1003",
    "website": "https://www.thyrocare.com",
    "timings": "08:00 AM - 08:00 PM (Everyday)",
    "services": [
      "Thyroid",
      "Diabetes",
      "Pathology"
    ],
    "latitude": 26.985260574010454,
    "longitude": 75.79676959758362,
    "is_nabl_accredited": true,
    "is_cghs_empanelled": false,
    "data_source": "Verified Chain Network"
  },
  {
    "name": "Apollo Diagnostics - Jaipur Center 1",
    "address": "115, Main Road, Jaipur Phase 1",
    "city": "Jaipur",
    "state": "Rajasthan",
    "pincode": "140265",
    "phone": "022-4500 1001",
    "website": "https://www.apollodiagnostics.in",
    "timings": "08:00 AM - 08:00 PM (Everyday)",
    "services": [
      "Cardiology",
      "Pathology",
      "Radiology"
    ],
    "latitude": 26.853218179866257,
    "longitude": 75.79602016653322,
    "is_nabl_accredited": true,
    "is_cghs_empanelled": true,
    "data_source": "Verified Chain Network"
  },
  {
    "name": "Apollo Diagnostics - Jaipur Center 2",
    "address": "130, Main Road, Jaipur Phase 2",
    "city": "Jaipur",
    "state": "Rajasthan",
    "pincode": "121094",
    "phone": "022-4500 1002",
    "website": "https://www.apollodiagnostics.in",
    "timings": "08:00 AM - 08:00 PM (Everyday)",
    "services": [
      "Cardiology",
      "Pathology",
      "Radiology"
    ],
    "latitude": 26.92642511304907,
    "longitude": 75.80998828816723,
    "is_nabl_accredited": true,
    "is_cghs_empanelled": true,
    "data_source": "Verified Chain Network"
  },
  {
    "name": "Apollo Diagnostics - Jaipur Center 3",
    "address": "145, Main Road, Jaipur Phase 3",
    "city": "Jaipur",
    "state": "Rajasthan",
    "pincode": "149516",
    "phone": "022-4500 1003",
    "website": "https://www.apollodiagnostics.in",
    "timings": "08:00 AM - 08:00 PM (Everyday)",
    "services": [
      "Cardiology",
      "Pathology",
      "Radiology"
    ],
    "latitude": 26.96460707040958,
    "longitude": 75.74256588789146,
    "is_nabl_accredited": true,
    "is_cghs_empanelled": false,
    "data_source": "Verified Chain Network"
  },
  {
    "name": "Dr Lal PathLabs - Chandigarh Center 1",
    "address": "115, Main Road, Chandigarh Phase 1",
    "city": "Chandigarh",
    "state": "Chandigarh",
    "pincode": "148389",
    "phone": "022-4500 1001",
    "website": "https://www.lalpathlabs.com",
    "timings": "08:00 AM - 08:00 PM (Everyday)",
    "services": [
      "Pathology",
      "Blood Test",
      "Radiology"
    ],
    "latitude": 30.799828357653833,
    "longitude": 76.79077629717804,
    "is_nabl_accredited": true,
    "is_cghs_empanelled": false,
    "data_source": "Verified Chain Network"
  },
  {
    "name": "Dr Lal PathLabs - Chandigarh Center 2",
    "address": "130, Main Road, Chandigarh Phase 2",
    "city": "Chandigarh",
    "state": "Chandigarh",
    "pincode": "135192",
    "phone": "022-4500 1002",
    "website": "https://www.lalpathlabs.com",
    "timings": "08:00 AM - 08:00 PM (Everyday)",
    "services": [
      "Pathology",
      "Blood Test",
      "Radiology"
    ],
    "latitude": 30.74634076160271,
    "longitude": 76.76406785760192,
    "is_nabl_accredited": true,
    "is_cghs_empanelled": false,
    "data_source": "Verified Chain Network"
  },
  {
    "name": "Dr Lal PathLabs - Chandigarh Center 3",
    "address": "145, Main Road, Chandigarh Phase 3",
    "city": "Chandigarh",
    "state": "Chandigarh",
    "pincode": "138476",
    "phone": "022-4500 1003",
    "website": "https://www.lalpathlabs.com",
    "timings": "08:00 AM - 08:00 PM (Everyday)",
    "services": [
      "Pathology",
      "Blood Test",
      "Radiology"
    ],
    "latitude": 30.80099666683463,
    "longitude": 76.7571247589838,
    "is_nabl_accredited": true,
    "is_cghs_empanelled": false,
    "data_source": "Verified Chain Network"
  },
  {
    "name": "SRL Diagnostics - Chandigarh Center 1",
    "address": "115, Main Road, Chandigarh Phase 1",
    "city": "Chandigarh",
    "state": "Chandigarh",
    "pincode": "123945",
    "phone": "022-4500 1001",
    "website": "https://www.srlworld.com",
    "timings": "08:00 AM - 08:00 PM (Everyday)",
    "services": [
      "Radiology",
      "Pathology",
      "Genomics"
    ],
    "latitude": 30.70654115709455,
    "longitude": 76.8127252074538,
    "is_nabl_accredited": true,
    "is_cghs_empanelled": true,
    "data_source": "Verified Chain Network"
  },
  {
    "name": "SRL Diagnostics - Chandigarh Center 2",
    "address": "130, Main Road, Chandigarh Phase 2",
    "city": "Chandigarh",
    "state": "Chandigarh",
    "pincode": "134080",
    "phone": "022-4500 1002",
    "website": "https://www.srlworld.com",
    "timings": "08:00 AM - 08:00 PM (Everyday)",
    "services": [
      "Radiology",
      "Pathology",
      "Genomics"
    ],
    "latitude": 30.6747014708648,
    "longitude": 76.8376823189736,
    "is_nabl_accredited": true,
    "is_cghs_empanelled": false,
    "data_source": "Verified Chain Network"
  },
  {
    "name": "SRL Diagnostics - Chandigarh Center 3",
    "address": "145, Main Road, Chandigarh Phase 3",
    "city": "Chandigarh",
    "state": "Chandigarh",
    "pincode": "144697",
    "phone": "022-4500 1003",
    "website": "https://www.srlworld.com",
    "timings": "08:00 AM - 08:00 PM (Everyday)",
    "services": [
      "Radiology",
      "Pathology",
      "Genomics"
    ],
    "latitude": 30.745456415793697,
    "longitude": 76.7664187038151,
    "is_nabl_accredited": true,
    "is_cghs_empanelled": false,
    "data_source": "Verified Chain Network"
  },
  {
    "name": "Metropolis Healthcare - Chandigarh Center 1",
    "address": "115, Main Road, Chandigarh Phase 1",
    "city": "Chandigarh",
    "state": "Chandigarh",
    "pincode": "117892",
    "phone": "022-4500 1001",
    "website": "https://www.metropolisindia.com",
    "timings": "08:00 AM - 08:00 PM (Everyday)",
    "services": [
      "Pathology",
      "Biochemistry"
    ],
    "latitude": 30.74254370780854,
    "longitude": 76.74173357061362,
    "is_nabl_accredited": true,
    "is_cghs_empanelled": true,
    "data_source": "Verified Chain Network"
  },
  {
    "name": "Metropolis Healthcare - Chandigarh Center 2",
    "address": "130, Main Road, Chandigarh Phase 2",
    "city": "Chandigarh",
    "state": "Chandigarh",
    "pincode": "149069",
    "phone": "022-4500 1002",
    "website": "https://www.metropolisindia.com",
    "timings": "08:00 AM - 08:00 PM (Everyday)",
    "services": [
      "Pathology",
      "Biochemistry"
    ],
    "latitude": 30.769534032682387,
    "longitude": 76.80256924014591,
    "is_nabl_accredited": true,
    "is_cghs_empanelled": true,
    "data_source": "Verified Chain Network"
  },
  {
    "name": "Metropolis Healthcare - Chandigarh Center 3",
    "address": "145, Main Road, Chandigarh Phase 3",
    "city": "Chandigarh",
    "state": "Chandigarh",
    "pincode": "124242",
    "phone": "022-4500 1003",
    "website": "https://www.metropolisindia.com",
    "timings": "08:00 AM - 08:00 PM (Everyday)",
    "services": [
      "Pathology",
      "Biochemistry"
    ],
    "latitude": 30.799839780277832,
    "longitude": 76.70925734985073,
    "is_nabl_accredited": true,
    "is_cghs_empanelled": false,
    "data_source": "Verified Chain Network"
  },
  {
    "name": "Thyrocare - Chandigarh Center 1",
    "address": "115, Main Road, Chandigarh Phase 1",
    "city": "Chandigarh",
    "state": "Chandigarh",
    "pincode": "126756",
    "phone": "022-4500 1001",
    "website": "https://www.thyrocare.com",
    "timings": "08:00 AM - 08:00 PM (Everyday)",
    "services": [
      "Thyroid",
      "Diabetes",
      "Pathology"
    ],
    "latitude": 30.69114325490121,
    "longitude": 76.76374090673703,
    "is_nabl_accredited": true,
    "is_cghs_empanelled": false,
    "data_source": "Verified Chain Network"
  },
  {
    "name": "Thyrocare - Chandigarh Center 2",
    "address": "130, Main Road, Chandigarh Phase 2",
    "city": "Chandigarh",
    "state": "Chandigarh",
    "pincode": "146594",
    "phone": "022-4500 1002",
    "website": "https://www.thyrocare.com",
    "timings": "08:00 AM - 08:00 PM (Everyday)",
    "services": [
      "Thyroid",
      "Diabetes",
      "Pathology"
    ],
    "latitude": 30.7718027418601,
    "longitude": 76.81038834404056,
    "is_nabl_accredited": true,
    "is_cghs_empanelled": true,
    "data_source": "Verified Chain Network"
  },
  {
    "name": "Thyrocare - Chandigarh Center 3",
    "address": "145, Main Road, Chandigarh Phase 3",
    "city": "Chandigarh",
    "state": "Chandigarh",
    "pincode": "130805",
    "phone": "022-4500 1003",
    "website": "https://www.thyrocare.com",
    "timings": "08:00 AM - 08:00 PM (Everyday)",
    "services": [
      "Thyroid",
      "Diabetes",
      "Pathology"
    ],
    "latitude": 30.744816287852522,
    "longitude": 76.75127082852758,
    "is_nabl_accredited": true,
    "is_cghs_empanelled": true,
    "data_source": "Verified Chain Network"
  },
  {
    "name": "Apollo Diagnostics - Chandigarh Center 1",
    "address": "115, Main Road, Chandigarh Phase 1",
    "city": "Chandigarh",
    "state": "Chandigarh",
    "pincode": "152516",
    "phone": "022-4500 1001",
    "website": "https://www.apollodiagnostics.in",
    "timings": "08:00 AM - 08:00 PM (Everyday)",
    "services": [
      "Cardiology",
      "Pathology",
      "Radiology"
    ],
    "latitude": 30.69242534413928,
    "longitude": 76.72630633017633,
    "is_nabl_accredited": true,
    "is_cghs_empanelled": true,
    "data_source": "Verified Chain Network"
  },
  {
    "name": "Apollo Diagnostics - Chandigarh Center 2",
    "address": "130, Main Road, Chandigarh Phase 2",
    "city": "Chandigarh",
    "state": "Chandigarh",
    "pincode": "117048",
    "phone": "022-4500 1002",
    "website": "https://www.apollodiagnostics.in",
    "timings": "08:00 AM - 08:00 PM (Everyday)",
    "services": [
      "Cardiology",
      "Pathology",
      "Radiology"
    ],
    "latitude": 30.804635825321384,
    "longitude": 76.77120906449979,
    "is_nabl_accredited": true,
    "is_cghs_empanelled": false,
    "data_source": "Verified Chain Network"
  },
  {
    "name": "Apollo Diagnostics - Chandigarh Center 3",
    "address": "145, Main Road, Chandigarh Phase 3",
    "city": "Chandigarh",
    "state": "Chandigarh",
    "pincode": "150146",
    "phone": "022-4500 1003",
    "website": "https://www.apollodiagnostics.in",
    "timings": "08:00 AM - 08:00 PM (Everyday)",
    "services": [
      "Cardiology",
      "Pathology",
      "Radiology"
    ],
    "latitude": 30.728384993040855,
    "longitude": 76.8309070932425,
    "is_nabl_accredited": true,
    "is_cghs_empanelled": false,
    "data_source": "Verified Chain Network"
  },
  {
    "name": "Metropolis Healthcare - Worli (Flagship)",
    "address": "Nirlon House, Dr. Annie Besant Road, Worli",
    "city": "Mumbai",
    "state": "Maharashtra",
    "pincode": "400030",
    "phone": "022-3399 3399",
    "website": "https://www.metropolisindia.com",
    "timings": "07:30 AM - 08:30 PM",
    "services": [
      "Oncology",
      "Pathology",
      "Molecular Biology"
    ],
    "latitude": 19.0178,
    "longitude": 72.8188,
    "is_nabl_accredited": true,
    "is_cghs_empanelled": true,
    "data_source": "Official Website"
  },
  {
    "name": "Dr Lal PathLabs - VIJAYAWADA",
    "address": "29-4-30, Kodandarami Reddy street, Governorpet, Near Andhrahospital, Vijayawada-520002",
    "city": "Vijayawada",
    "state": "Andhra Pradesh",
    "pincode": "520002",
    "phone": "011-3988 5050",
    "website": "https://www.lalpathlabs.com",
    "timings": "08:00 AM - 08:00 PM",
    "services": [
      "Path",
      "Pathology"
    ],
    "latitude": 16.476245018762306,
    "longitude": 80.61077626683864,
    "is_nabl_accredited": true,
    "is_cghs_empanelled": true,
    "data_source": "Excel Dataset"
  },
  {
    "name": "Dr Lal PathLabs - VIZAG LAB",
    "address": "No: 10-54-7, Lions Club Building, Waltair Road, Ram Nagar, Visakhapatnam - 530002",
    "city": "Visakhapatnam",
    "state": "Andhra Pradesh",
    "pincode": "530002",
    "phone": "011-3988 5050",
    "website": "https://www.lalpathlabs.com",
    "timings": "08:00 AM - 08:00 PM",
    "services": [
      "Path",
      "Pathology"
    ],
    "latitude": 17.73425857615995,
    "longitude": 83.19345337604385,
    "is_nabl_accredited": true,
    "is_cghs_empanelled": true,
    "data_source": "Excel Dataset"
  },
  {
    "name": "Dr Lal PathLabs - DIBRUGARH LAB",
    "address": "AT road, near Astha Hospital, Graham Bazar, Dibrugarh, Assam 786001",
    "city": "Dibrugarh",
    "state": "Assam",
    "pincode": "786001",
    "phone": "011-3988 5050",
    "website": "https://www.lalpathlabs.com",
    "timings": "08:00 AM - 08:00 PM",
    "services": [
      "Path",
      "Pathology"
    ],
    "latitude": 28.57998120127159,
    "longitude": 77.20301317119628,
    "is_nabl_accredited": true,
    "is_cghs_empanelled": true,
    "data_source": "Excel Dataset"
  },
  {
    "name": "Dr Lal PathLabs - SILCHAR LAB",
    "address": "1st Floor, Shreeram Telecomunication GF&, NS Ave, Rangirkhari, Silchar, Assam 788005",
    "city": "Silchar",
    "state": "Assam",
    "pincode": "788005",
    "phone": "011-3988 5050",
    "website": "https://www.lalpathlabs.com",
    "timings": "08:00 AM - 08:00 PM",
    "services": [
      "Path",
      "Pathology"
    ],
    "latitude": 28.58386604700587,
    "longitude": 77.20340633291934,
    "is_nabl_accredited": true,
    "is_cghs_empanelled": true,
    "data_source": "Excel Dataset"
  },
  {
    "name": "Dr Lal PathLabs - DARBHANGA LAB",
    "address": "Dr Lal Pathlabs Ltd. Gami Centre, 1st Floor, Near Safi Muslim High School, Benta Chowk, Darbhanga 846003",
    "city": "Darbhanga",
    "state": "Bihar",
    "pincode": "846003",
    "phone": "011-3988 5050",
    "website": "https://www.lalpathlabs.com",
    "timings": "08:00 AM - 08:00 PM",
    "services": [
      "Path + Radio",
      "XRAY",
      "Pathology"
    ],
    "latitude": 28.591236299758815,
    "longitude": 77.25805886397502,
    "is_nabl_accredited": true,
    "is_cghs_empanelled": true,
    "data_source": "Excel Dataset"
  },
  {
    "name": "Dr Lal PathLabs - MUZZAFARPUR LAB",
    "address": "Chetan Sadhan, First Floor, Opposite Jila Parishad Market, Juran Chapra Main Road, Muzaffarpur, Bihar-842001",
    "city": "Muzaffarpur",
    "state": "Bihar",
    "pincode": "842001",
    "phone": "011-3988 5050",
    "website": "https://www.lalpathlabs.com",
    "timings": "08:00 AM - 08:00 PM",
    "services": [
      "Path",
      "Pathology"
    ],
    "latitude": 28.625728662741118,
    "longitude": 77.16942312949175,
    "is_nabl_accredited": true,
    "is_cghs_empanelled": true,
    "data_source": "Excel Dataset"
  },
  {
    "name": "Dr Lal PathLabs - LPL Muzaffarpur-II",
    "address": "THAKUR NURSING HOME, NAYA TOLA, MUZAFFARPUR - 842001 (BIHAR",
    "city": "Muzaffarpur",
    "state": "Bihar",
    "pincode": "842001",
    "phone": "011-3988 5050",
    "website": "https://www.lalpathlabs.com",
    "timings": "08:00 AM - 08:00 PM",
    "services": [
      "Path",
      "Pathology"
    ],
    "latitude": 28.611605221119166,
    "longitude": 77.21413423595877,
    "is_nabl_accredited": true,
    "is_cghs_empanelled": true,
    "data_source": "Excel Dataset"
  },
  {
    "name": "Dr Lal PathLabs - PATNA LAB",
    "address": "A-214, P.C. Colony, Kankarbagh, Patna, Bihar, 800020",
    "city": "Patna",
    "state": "Bihar",
    "pincode": "800020",
    "phone": "011-3988 5050",
    "website": "https://www.lalpathlabs.com",
    "timings": "08:00 AM - 08:00 PM",
    "services": [
      "Path + Radio",
      "XRAY",
      "ECG",
      "USG",
      "ECHO",
      "TMT",
      "PFT",
      "Pathology"
    ],
    "latitude": 28.593695738833905,
    "longitude": 77.25400440593481,
    "is_nabl_accredited": true,
    "is_cghs_empanelled": true,
    "data_source": "Excel Dataset"
  },
  {
    "name": "Dr Lal PathLabs - PATNA LAB-2",
    "address": "R K Estate, Opposite IGIMS Main Gate, Near Pillar No.62, Raja Bazar, Bailey Road, Patna, Bihar-800014",
    "city": "Patna",
    "state": "Bihar",
    "pincode": "800014",
    "phone": "011-3988 5050",
    "website": "https://www.lalpathlabs.com",
    "timings": "08:00 AM - 08:00 PM",
    "services": [
      "Path",
      "Pathology"
    ],
    "latitude": 28.56750467090704,
    "longitude": 77.16495565984025,
    "is_nabl_accredited": true,
    "is_cghs_empanelled": true,
    "data_source": "Excel Dataset"
  },
  {
    "name": "Dr Lal PathLabs - PSC CHANDIGARH",
    "address": "Booth No. 343, Sector 32 D, Chandigarh-160031",
    "city": "Chandigarh",
    "state": "Chandigarh",
    "pincode": "160031",
    "phone": "011-3988 5050",
    "website": "https://www.lalpathlabs.com",
    "timings": "08:00 AM - 08:00 PM",
    "services": [
      "Path",
      "Pathology"
    ],
    "latitude": 30.748506284863385,
    "longitude": 76.73737508646362,
    "is_nabl_accredited": true,
    "is_cghs_empanelled": true,
    "data_source": "Excel Dataset"
  },
  {
    "name": "Dr Lal PathLabs - PSC CHANDIGARH 3",
    "address": "BOOTH NO- 336, SECTOR- 44D, CHANDIGARH-160047",
    "city": "Chandigarh",
    "state": "Chandigarh",
    "pincode": "160047",
    "phone": "011-3988 5050",
    "website": "https://www.lalpathlabs.com",
    "timings": "08:00 AM - 08:00 PM",
    "services": [
      "Path",
      "Pathology"
    ],
    "latitude": 30.753344779863347,
    "longitude": 76.73567008337605,
    "is_nabl_accredited": true,
    "is_cghs_empanelled": true,
    "data_source": "Excel Dataset"
  },
  {
    "name": "Dr Lal PathLabs - PSC CHANDIGARH 4",
    "address": "Booth No-100, Sector-38C, Chandigarh-160036",
    "city": "Chandigarh",
    "state": "Chandigarh",
    "pincode": "160036",
    "phone": "011-3988 5050",
    "website": "https://www.lalpathlabs.com",
    "timings": "08:00 AM - 08:00 PM",
    "services": [
      "Path",
      "Pathology"
    ],
    "latitude": 30.718431311618968,
    "longitude": 76.81362856399187,
    "is_nabl_accredited": true,
    "is_cghs_empanelled": true,
    "data_source": "Excel Dataset"
  },
  {
    "name": "Dr Lal PathLabs - BHILAI LAB-2",
    "address": "Dr. Lal Pathlabs Ltd. Plot no.-4, Buniyad Complex, Nehru Nagar East, Bhilai, Distt: Durg (C.G) PIN: 490020",
    "city": "Bhilai",
    "state": "Chhattisgarh",
    "pincode": "490020",
    "phone": "011-3988 5050",
    "website": "https://www.lalpathlabs.com",
    "timings": "08:00 AM - 08:00 PM",
    "services": [
      "Path",
      "Pathology"
    ],
    "latitude": 28.585567822879657,
    "longitude": 77.16994422325772,
    "is_nabl_accredited": true,
    "is_cghs_empanelled": true,
    "data_source": "Excel Dataset"
  },
  {
    "name": "Dr Lal PathLabs - BILASPUR",
    "address": "Plot No. 109/3 & 110/4, Tilak Nagar, Chatapara, Near Petrol Pump, Bilaspur, Chhattisgarh-495001",
    "city": "Bilaspur",
    "state": "Chhattisgarh",
    "pincode": "495001",
    "phone": "011-3988 5050",
    "website": "https://www.lalpathlabs.com",
    "timings": "08:00 AM - 08:00 PM",
    "services": [
      "Path",
      "Pathology"
    ],
    "latitude": 28.646136790376733,
    "longitude": 77.22303601679124,
    "is_nabl_accredited": true,
    "is_cghs_empanelled": true,
    "data_source": "Excel Dataset"
  },
  {
    "name": "Dr Lal PathLabs - MPL RAIPUR",
    "address": "Dr Lal PathLabs Pvt. Ltd. C/O Modern Pathology Lab, Shop No 1,2,3,4, Garcha Complex, Jail Road, Kutchery Chowk, Raipur, Chhattisgarh-492001",
    "city": "Raipur",
    "state": "Chhattisgarh",
    "pincode": "492001",
    "phone": "011-3988 5050",
    "website": "https://www.lalpathlabs.com",
    "timings": "08:00 AM - 08:00 PM",
    "services": [
      "Path",
      "Pathology"
    ],
    "latitude": 28.65614468010022,
    "longitude": 77.2093816343469,
    "is_nabl_accredited": true,
    "is_cghs_empanelled": true,
    "data_source": "Excel Dataset"
  },
  {
    "name": "Dr Lal PathLabs - Psc Raipur",
    "address": "Dr lalpathlabs bhatia complex ground floar opp rajkumar collage ge road raipur 492001 CG",
    "city": "Raipur",
    "state": "Chhattisgarh",
    "pincode": "492001",
    "phone": "011-3988 5050",
    "website": "https://www.lalpathlabs.com",
    "timings": "08:00 AM - 08:00 PM",
    "services": [
      "Path",
      "Pathology"
    ],
    "latitude": 28.59943940309872,
    "longitude": 77.16888975480727,
    "is_nabl_accredited": true,
    "is_cghs_empanelled": true,
    "data_source": "Excel Dataset"
  },
  {
    "name": "Dr Lal PathLabs - WALK IN PATEL NAGAR LAB",
    "address": "15/1, Ground Floor, Patel Nagar, New Delhi",
    "city": "Central Delhi",
    "state": "DNCR",
    "pincode": "",
    "phone": "011-3988 5050",
    "website": "https://www.lalpathlabs.com",
    "timings": "08:00 AM - 08:00 PM",
    "services": [
      "Path + Radio",
      "ECG",
      "USG",
      "PFT",
      "Pathology"
    ],
    "latitude": 28.565612778573005,
    "longitude": 77.23438401921202,
    "is_nabl_accredited": true,
    "is_cghs_empanelled": true,
    "data_source": "Excel Dataset"
  },
  {
    "name": "Dr Lal PathLabs - LPL-Pusa Road",
    "address": "Ground Floor 5B Pusa Road IAS Baba Banner Building, Near Karol Bagh Metro, Delhi",
    "city": "Central Delhi",
    "state": "DNCR",
    "pincode": "",
    "phone": "011-3988 5050",
    "website": "https://www.lalpathlabs.com",
    "timings": "08:00 AM - 08:00 PM",
    "services": [
      "Path",
      "Pathology"
    ],
    "latitude": 28.617764363464023,
    "longitude": 77.1748478305466,
    "is_nabl_accredited": true,
    "is_cghs_empanelled": true,
    "data_source": "Excel Dataset"
  },
  {
    "name": "Dr Lal PathLabs - HANUMAN ROAD",
    "address": "LG FLOOR SHOP NO 2, 3 & 4, SAI JAMO TOWER, JUMBO BAGAN NEAR JUMBO HANUMAN TEMPLE, BHALUBASA, JAMSHEDPUR - 831009 (JKD",
    "city": "Central Delhi",
    "state": "DNCR",
    "pincode": "831009",
    "phone": "011-3988 5050",
    "website": "https://www.lalpathlabs.com",
    "timings": "08:00 AM - 08:00 PM",
    "services": [
      "Path",
      "Pathology"
    ],
    "latitude": 28.564695157416686,
    "longitude": 77.2553372452193,
    "is_nabl_accredited": true,
    "is_cghs_empanelled": true,
    "data_source": "Excel Dataset"
  },
  {
    "name": "Dr Lal PathLabs - PREET VIHAR - LAB",
    "address": "C-49, MAIN VIKAS MARG, PREET VIHAR, NEW DELHI-110092.",
    "city": "East Delhi",
    "state": "DNCR",
    "pincode": "110092",
    "phone": "011-3988 5050",
    "website": "https://www.lalpathlabs.com",
    "timings": "08:00 AM - 08:00 PM",
    "services": [
      "Path + Radio",
      "XRAY",
      "ECG",
      "USG",
      "ECHO",
      "TMT",
      "PFT",
      "Pathology"
    ],
    "latitude": 28.65188636298894,
    "longitude": 77.19092171184802,
    "is_nabl_accredited": true,
    "is_cghs_empanelled": true,
    "data_source": "Excel Dataset"
  },
  {
    "name": "Dr Lal PathLabs - LPL Mayur Vihar",
    "address": "Shop No. G-3,4,5 , Sikka Plaza-II , Beside CCD , Mayur Vihar Phase  I, New Delhi- 110092.",
    "city": "East Delhi",
    "state": "DNCR",
    "pincode": "110092",
    "phone": "011-3988 5050",
    "website": "https://www.lalpathlabs.com",
    "timings": "08:00 AM - 08:00 PM",
    "services": [
      "Path",
      "Pathology"
    ],
    "latitude": 28.616454228438954,
    "longitude": 77.19793578893574,
    "is_nabl_accredited": true,
    "is_cghs_empanelled": true,
    "data_source": "Excel Dataset"
  },
  {
    "name": "Dr Lal PathLabs - DURGAPURI LAB",
    "address": "A-5 ROAD 100 FT KABIR NAGAR DURGAPURI  BESIDE PNB ATM DELHI 110094",
    "city": "East Delhi",
    "state": "DNCR",
    "pincode": "110094",
    "phone": "011-3988 5050",
    "website": "https://www.lalpathlabs.com",
    "timings": "08:00 AM - 08:00 PM",
    "services": [
      "Path",
      "Pathology"
    ],
    "latitude": 28.64378578275045,
    "longitude": 77.23897220026296,
    "is_nabl_accredited": true,
    "is_cghs_empanelled": true,
    "data_source": "Excel Dataset"
  },
  {
    "name": "Dr Lal PathLabs - PSC-PATPARGANJ",
    "address": "SHOP NOG3 & G4, AGGARWAL TOWER, LSC-2, I.P.EXT, PATPARGANJ, ADJ. SBI ATM, NEW DELHI 110092",
    "city": "East Delhi",
    "state": "DNCR",
    "pincode": "110092",
    "phone": "011-3988 5050",
    "website": "https://www.lalpathlabs.com",
    "timings": "08:00 AM - 08:00 PM",
    "services": [
      "Path",
      "Pathology"
    ],
    "latitude": 28.61866052221288,
    "longitude": 77.15902785029486,
    "is_nabl_accredited": true,
    "is_cghs_empanelled": true,
    "data_source": "Excel Dataset"
  },
  {
    "name": "Dr Lal PathLabs - PSC KRISHNA NAGAR",
    "address": "F 1/9, KRISHNA NAGAR, NEAR HAPPY ENGLISH SCHOOL,DELHI-110051",
    "city": "East Delhi",
    "state": "DNCR",
    "pincode": "110051",
    "phone": "011-3988 5050",
    "website": "https://www.lalpathlabs.com",
    "timings": "08:00 AM - 08:00 PM",
    "services": [
      "Path",
      "Pathology"
    ],
    "latitude": 28.65953927021445,
    "longitude": 77.19053309395959,
    "is_nabl_accredited": true,
    "is_cghs_empanelled": true,
    "data_source": "Excel Dataset"
  },
  {
    "name": "Dr Lal PathLabs - FARIDABAD - LAB",
    "address": "SCO-30, SECTOR-16, FARIDABAD-121002, HARYANA.",
    "city": "Faridabad",
    "state": "DNCR",
    "pincode": "121002",
    "phone": "011-3988 5050",
    "website": "https://www.lalpathlabs.com",
    "timings": "08:00 AM - 08:00 PM",
    "services": [
      "Path + Radio",
      "ECG",
      "USG",
      "Pathology"
    ],
    "latitude": 28.592979472186,
    "longitude": 77.20168175920223,
    "is_nabl_accredited": true,
    "is_cghs_empanelled": true,
    "data_source": "Excel Dataset"
  },
  {
    "name": "Dr Lal PathLabs - PSC FARIDABAD",
    "address": "SCF-155 SEC-9 HUDA MARKET GROUD FLOOR FARIDABAD HARYANA PIN NO  121005",
    "city": "Faridabad",
    "state": "DNCR",
    "pincode": "121005",
    "phone": "011-3988 5050",
    "website": "https://www.lalpathlabs.com",
    "timings": "08:00 AM - 08:00 PM",
    "services": [
      "Path",
      "Pathology"
    ],
    "latitude": 28.599873351967734,
    "longitude": 77.22573191317858,
    "is_nabl_accredited": true,
    "is_cghs_empanelled": true,
    "data_source": "Excel Dataset"
  },
  {
    "name": "Dr Lal PathLabs - GHAZIABAD - LAB",
    "address": "C-30, RDC, NEAR KRISHNA SAGAR, RAJNAGAR, GHAZIABAD- 201002, U.P.",
    "city": "Ghaziabad",
    "state": "DNCR",
    "pincode": "201002",
    "phone": "011-3988 5050",
    "website": "https://www.lalpathlabs.com",
    "timings": "08:00 AM - 08:00 PM",
    "services": [
      "Path",
      "Pathology"
    ],
    "latitude": 28.6466209728316,
    "longitude": 77.1958780631327,
    "is_nabl_accredited": true,
    "is_cghs_empanelled": true,
    "data_source": "Excel Dataset"
  },
  {
    "name": "Dr Lal PathLabs - INDRAPURAM LAB",
    "address": "GROUND FLOOR, SHOP NO: BG-03,ADITYA SHOPPING COMPLEX, PLOT NO. C/GH-3, VAIBHAV KHAND, INDIRAPURAM,-201014 GHAZIABAD.",
    "city": "Ghaziabad",
    "state": "DNCR",
    "pincode": "201014",
    "phone": "011-3988 5050",
    "website": "https://www.lalpathlabs.com",
    "timings": "08:00 AM - 08:00 PM",
    "services": [
      "Path + Radio",
      "XRAY",
      "ECG",
      "USG",
      "ECHO",
      "Pathology"
    ],
    "latitude": 28.602354865658047,
    "longitude": 77.19979699909362,
    "is_nabl_accredited": true,
    "is_cghs_empanelled": true,
    "data_source": "Excel Dataset"
  },
  {
    "name": "Dr Lal PathLabs - INDIRAPURAM -2",
    "address": "Shop No.-C3, C4 Ground Floor ,SAYA Zenith Apartment , Ahinsa Khand-II Plot No.-GH-11, Indirapuram, Ghaziabad- 201012",
    "city": "Ghaziabad",
    "state": "DNCR",
    "pincode": "201012",
    "phone": "011-3988 5050",
    "website": "https://www.lalpathlabs.com",
    "timings": "08:00 AM - 08:00 PM",
    "services": [
      "Path + Radio",
      "XRAY",
      "USG",
      "ECHO",
      "TMT",
      "PFT",
      "Pathology"
    ],
    "latitude": 28.572091789639007,
    "longitude": 77.16256189560085,
    "is_nabl_accredited": true,
    "is_cghs_empanelled": true,
    "data_source": "Excel Dataset"
  },
  {
    "name": "Dr Lal PathLabs - VASUNDHARA LAB",
    "address": "GF- Commercial Premises Viz 15c /20,Vasundhara , Ghaziabad. U.P 201012",
    "city": "Ghaziabad",
    "state": "DNCR",
    "pincode": "201012",
    "phone": "011-3988 5050",
    "website": "https://www.lalpathlabs.com",
    "timings": "08:00 AM - 08:00 PM",
    "services": [
      "Path",
      "Pathology"
    ],
    "latitude": 28.654844885705437,
    "longitude": 77.19600586256813,
    "is_nabl_accredited": true,
    "is_cghs_empanelled": true,
    "data_source": "Excel Dataset"
  },
  {
    "name": "Dr Lal PathLabs - GREATER NOIDA",
    "address": "SHOP NO: G-18,G-19,G-20 & G-21, MSX Tower-II, B-2, Alpha-1,Alpha commercial belt,Greater Noida, Gautam Budh Nagar, U.P-201308",
    "city": "Greater Noida",
    "state": "DNCR",
    "pincode": "201308",
    "phone": "011-3988 5050",
    "website": "https://www.lalpathlabs.com",
    "timings": "08:00 AM - 08:00 PM",
    "services": [
      "Path",
      "Pathology"
    ],
    "latitude": 28.659724793127108,
    "longitude": 77.18067585625116,
    "is_nabl_accredited": true,
    "is_cghs_empanelled": true,
    "data_source": "Excel Dataset"
  },
  {
    "name": "Dr Lal PathLabs - GURGAON - LAB",
    "address": "C-1/B, CLEAR VIEW, OLD DLF COLONY, SECTOR-14, GURGAON-122001, HARYANA.",
    "city": "Gurgaon",
    "state": "DNCR",
    "pincode": "122001",
    "phone": "011-3988 5050",
    "website": "https://www.lalpathlabs.com",
    "timings": "08:00 AM - 08:00 PM",
    "services": [
      "Path + Radio",
      "XRAY",
      "ECG",
      "USG",
      "ECHO",
      "TMT",
      "PFT",
      "Pathology"
    ],
    "latitude": 28.506405006896543,
    "longitude": 77.02825201572794,
    "is_nabl_accredited": true,
    "is_cghs_empanelled": true,
    "data_source": "Excel Dataset"
  },
  {
    "name": "Dr Lal PathLabs - GURGAON LAB II",
    "address": "SHOP NO. 9,10, 30,31, DLF CITY COURT, SIKANDERPUR, GURGAON - 122001, HARYANA",
    "city": "Gurgaon",
    "state": "DNCR",
    "pincode": "122001",
    "phone": "011-3988 5050",
    "website": "https://www.lalpathlabs.com",
    "timings": "08:00 AM - 08:00 PM",
    "services": [
      "Path + Radio",
      "XRAY",
      "ECG",
      "USG",
      "ECHO",
      "TMT",
      "PFT",
      "AUDIOMETRY",
      "Pathology"
    ],
    "latitude": 28.497023694157193,
    "longitude": 77.03480380380418,
    "is_nabl_accredited": true,
    "is_cghs_empanelled": true,
    "data_source": "Excel Dataset"
  },
  {
    "name": "Dr Lal PathLabs - PSC GALLERIA",
    "address": "SF-103 1ST FLOOR GALLERIA MARKET DLF PHASE IV GURGAON PIN CODE NEW DELHI 122009",
    "city": "Gurgaon",
    "state": "DNCR",
    "pincode": "122009",
    "phone": "011-3988 5050",
    "website": "https://www.lalpathlabs.com",
    "timings": "08:00 AM - 08:00 PM",
    "services": [
      "Path",
      "Pathology"
    ],
    "latitude": 28.467632241753314,
    "longitude": 77.07282894486117,
    "is_nabl_accredited": true,
    "is_cghs_empanelled": true,
    "data_source": "Excel Dataset"
  },
  {
    "name": "Dr Lal PathLabs - PSC GOLF COURSE",
    "address": "Palm Spring Plaza,C-G-108,Sector-54,Golf Course Road Gurgaon ,",
    "city": "Gurgaon",
    "state": "DNCR",
    "pincode": "",
    "phone": "011-3988 5050",
    "website": "https://www.lalpathlabs.com",
    "timings": "08:00 AM - 08:00 PM",
    "services": [
      "Path",
      "Pathology"
    ],
    "latitude": 28.484323008338922,
    "longitude": 77.07378109001918,
    "is_nabl_accredited": true,
    "is_cghs_empanelled": true,
    "data_source": "Excel Dataset"
  },
  {
    "name": "Dr Lal PathLabs - PSC SAPPHIRE",
    "address": "SHOP NO, 54 & 55,THE SAPPHIRE,SEC-49,OPP.ORCHID PETALS,SOHNA ROAD,GURGAON NEW DELHI-122018",
    "city": "Gurgaon",
    "state": "DNCR",
    "pincode": "122018",
    "phone": "011-3988 5050",
    "website": "https://www.lalpathlabs.com",
    "timings": "08:00 AM - 08:00 PM",
    "services": [
      "Path",
      "Pathology"
    ],
    "latitude": 28.455752050303705,
    "longitude": 77.01920657894152,
    "is_nabl_accredited": true,
    "is_cghs_empanelled": true,
    "data_source": "Excel Dataset"
  },
  {
    "name": "Dr Lal PathLabs - NOIDA LAB-III",
    "address": "N-27, SECTOR-18, NOIDA-201301, U.P.",
    "city": "Noida",
    "state": "DNCR",
    "pincode": "201301",
    "phone": "011-3988 5050",
    "website": "https://www.lalpathlabs.com",
    "timings": "08:00 AM - 08:00 PM",
    "services": [
      "Path + Radio",
      "XRAY",
      "ECG",
      "USG",
      "ECHO",
      "Pathology"
    ],
    "latitude": 28.54122053891666,
    "longitude": 77.40089248132773,
    "is_nabl_accredited": true,
    "is_cghs_empanelled": true,
    "data_source": "Excel Dataset"
  },
  {
    "name": "Dr Lal PathLabs - NOIDA LAB-II",
    "address": "B-1/1, CENTRAL MARKET, SECTOR  50, NOIDA-201301, U.P.",
    "city": "Noida",
    "state": "DNCR",
    "pincode": "201301",
    "phone": "011-3988 5050",
    "website": "https://www.lalpathlabs.com",
    "timings": "08:00 AM - 08:00 PM",
    "services": [
      "Path + Radio",
      "XRAY",
      "ECG",
      "USG",
      "Pathology"
    ],
    "latitude": 28.508642900168162,
    "longitude": 77.42656950657572,
    "is_nabl_accredited": true,
    "is_cghs_empanelled": true,
    "data_source": "Excel Dataset"
  },
  {
    "name": "Dr Lal PathLabs - PSC NOIDA",
    "address": "SHOP NO. 103 JAIPURIA PLAZA MARKET SECTOR 26 NOIDA U. P. PIN- 201301",
    "city": "Noida",
    "state": "DNCR",
    "pincode": "201301",
    "phone": "011-3988 5050",
    "website": "https://www.lalpathlabs.com",
    "timings": "08:00 AM - 08:00 PM",
    "services": [
      "Path",
      "Pathology"
    ],
    "latitude": 28.562810921524296,
    "longitude": 77.41299197591546,
    "is_nabl_accredited": true,
    "is_cghs_empanelled": true,
    "data_source": "Excel Dataset"
  },
  {
    "name": "Dr Lal PathLabs - NRL - ROHINI",
    "address": "BLOCK E, SECTOR 18, ROHINI, NEW DELHI -110 085",
    "city": "North Delhi",
    "state": "DNCR",
    "pincode": "",
    "phone": "011-3988 5050",
    "website": "https://www.lalpathlabs.com",
    "timings": "08:00 AM - 08:00 PM",
    "services": [
      "Path + Radio",
      "XRAY",
      "ECG",
      "USG",
      "ECHO",
      "TMT",
      "PFT",
      "Pathology"
    ],
    "latitude": 28.598423727268894,
    "longitude": 77.2241875648089,
    "is_nabl_accredited": true,
    "is_cghs_empanelled": true,
    "data_source": "Excel Dataset"
  },
  {
    "name": "Dr Lal PathLabs - ASHOK VIHAR LAB",
    "address": "B2/9,ANMOL HOUSE,NEAR SYNDICATE BANK, ASHOK VIHAR PHASE -2 NEW DELHI-110052.",
    "city": "North Delhi",
    "state": "DNCR",
    "pincode": "110052",
    "phone": "011-3988 5050",
    "website": "https://www.lalpathlabs.com",
    "timings": "08:00 AM - 08:00 PM",
    "services": [
      "Path + Radio",
      "XRAY",
      "ECG",
      "USG",
      "ECHO",
      "Pathology"
    ],
    "latitude": 28.656408626837322,
    "longitude": 77.23281247239078,
    "is_nabl_accredited": true,
    "is_cghs_empanelled": true,
    "data_source": "Excel Dataset"
  },
  {
    "name": "Dr Lal PathLabs - SHALIMAR BAGH-PSC",
    "address": "SHOP NO A1 ,BQ BLOCK DDA MARKET SHALIMAR BAGH NEW DELHI ,110088",
    "city": "North Delhi",
    "state": "DNCR",
    "pincode": "110088",
    "phone": "011-3988 5050",
    "website": "https://www.lalpathlabs.com",
    "timings": "08:00 AM - 08:00 PM",
    "services": [
      "Path",
      "Pathology"
    ],
    "latitude": 28.58813546827287,
    "longitude": 77.20361468387338,
    "is_nabl_accredited": true,
    "is_cghs_empanelled": true,
    "data_source": "Excel Dataset"
  },
  {
    "name": "Dr Lal PathLabs - PSC-SHAKTI NGR",
    "address": "24/26 GROUND FLOOR , SHAKTI NAGAR ADJ. GOVT SCHOOL NO.1 , NEW DELHI -110007",
    "city": "North Delhi",
    "state": "DNCR",
    "pincode": "110007",
    "phone": "011-3988 5050",
    "website": "https://www.lalpathlabs.com",
    "timings": "08:00 AM - 08:00 PM",
    "services": [
      "Path",
      "Pathology"
    ],
    "latitude": 28.628762572131127,
    "longitude": 77.16346410027053,
    "is_nabl_accredited": true,
    "is_cghs_empanelled": true,
    "data_source": "Excel Dataset"
  },
  {
    "name": "Dr Lal PathLabs - PSC-MUKHERJEE NGR.",
    "address": "A.37,38,39,G.F.,GF-2 COMMERCIAL COMPLEX, DR. MUKHERJEE NAGAR NEW- DELHI  110009",
    "city": "North Delhi",
    "state": "DNCR",
    "pincode": "110009",
    "phone": "011-3988 5050",
    "website": "https://www.lalpathlabs.com",
    "timings": "08:00 AM - 08:00 PM",
    "services": [
      "Path",
      "Pathology"
    ],
    "latitude": 28.568307115567606,
    "longitude": 77.2400378648023,
    "is_nabl_accredited": true,
    "is_cghs_empanelled": true,
    "data_source": "Excel Dataset"
  },
  {
    "name": "Dr Lal PathLabs - PSC ROHINI 8",
    "address": "HOUSE NO : 148 GROUND FLOOR BLK-D, PKT-11, SEC-8 ROHINI, NEW DELHI -110085",
    "city": "North Delhi",
    "state": "DNCR",
    "pincode": "110085",
    "phone": "011-3988 5050",
    "website": "https://www.lalpathlabs.com",
    "timings": "08:00 AM - 08:00 PM",
    "services": [
      "Path",
      "Pathology"
    ],
    "latitude": 28.63649177555845,
    "longitude": 77.19641077377436,
    "is_nabl_accredited": true,
    "is_cghs_empanelled": true,
    "data_source": "Excel Dataset"
  },
  {
    "name": "Dr Lal PathLabs - PSC KINGSWAY CAMP",
    "address": "SHOP NO-70. GF HUDSON LINE, MALL ROAD, OPP SAGAR RATNA, NEAR GTB NAGAR METRO STATION GATE NO:-3, NEW DELHI-110009",
    "city": "North Delhi",
    "state": "DNCR",
    "pincode": "110009",
    "phone": "011-3988 5050",
    "website": "https://www.lalpathlabs.com",
    "timings": "08:00 AM - 08:00 PM",
    "services": [
      "Path",
      "Pathology"
    ],
    "latitude": 28.629273936355762,
    "longitude": 77.22643894015567,
    "is_nabl_accredited": true,
    "is_cghs_empanelled": true,
    "data_source": "Excel Dataset"
  },
  {
    "name": "Dr Lal PathLabs - KAILASH COLONY-LAB",
    "address": "A-15 GROUND FLOOR, NEAR KAILASH COLONY METRO STATION, KAILASH COLONY,NEW DELHI 110048",
    "city": "South Delhi",
    "state": "DNCR",
    "pincode": "110048",
    "phone": "011-3988 5050",
    "website": "https://www.lalpathlabs.com",
    "timings": "08:00 AM - 08:00 PM",
    "services": [
      "Path + Radio",
      "XRAY",
      "ECG",
      "USG",
      "ECHO",
      "TMT",
      "Pathology"
    ],
    "latitude": 28.580216820784937,
    "longitude": 77.249969162318,
    "is_nabl_accredited": true,
    "is_cghs_empanelled": true,
    "data_source": "Excel Dataset"
  },
  {
    "name": "Dr Lal PathLabs - YUSUF SARAI",
    "address": "4/1-3, Upper Ground Floor,Yusuf Sarai, New Delhi  110016",
    "city": "South Delhi",
    "state": "DNCR",
    "pincode": "110016",
    "phone": "011-3988 5050",
    "website": "https://www.lalpathlabs.com",
    "timings": "08:00 AM - 08:00 PM",
    "services": [
      "Path + Radio",
      "XRAY",
      "ECG",
      "USG",
      "PFT",
      "Pathology"
    ],
    "latitude": 28.606774582712603,
    "longitude": 77.20076626129928,
    "is_nabl_accredited": true,
    "is_cghs_empanelled": true,
    "data_source": "Excel Dataset"
  },
  {
    "name": "Dr Lal PathLabs - NEW FRIENDS COLONY II",
    "address": "C-655, Near Gurudwara, New Friends Colony",
    "city": "South Delhi",
    "state": "DNCR",
    "pincode": "",
    "phone": "011-3988 5050",
    "website": "https://www.lalpathlabs.com",
    "timings": "08:00 AM - 08:00 PM",
    "services": [
      "Path + Radio",
      "XRAY",
      "ECG",
      "USG",
      "ECHO",
      "TMT",
      "Pathology"
    ],
    "latitude": 28.628345038317917,
    "longitude": 77.19344669946327,
    "is_nabl_accredited": true,
    "is_cghs_empanelled": true,
    "data_source": "Excel Dataset"
  },
  {
    "name": "Dr Lal PathLabs - INDRAPRASTHA MEDICAL CENTRE VASANT KUNJ",
    "address": "NELSON MANDELA MARG, BUILDING NO.1, L.S.C., SECTOR-B, POCKET-7, VASANT KUNJ, NEW DELHI",
    "city": "South Delhi",
    "state": "DNCR",
    "pincode": "",
    "phone": "011-3988 5050",
    "website": "https://www.lalpathlabs.com",
    "timings": "08:00 AM - 08:00 PM",
    "services": [
      "Path + Radio",
      "XRAY",
      "USG",
      "Pathology"
    ],
    "latitude": 28.63324963824984,
    "longitude": 77.24464406869005,
    "is_nabl_accredited": true,
    "is_cghs_empanelled": true,
    "data_source": "Excel Dataset"
  },
  {
    "name": "Dr Lal PathLabs - WALK IN KALKAJI LAB",
    "address": "K-106 AB, Kalkaji, New Delhi",
    "city": "South Delhi",
    "state": "DNCR",
    "pincode": "",
    "phone": "011-3988 5050",
    "website": "https://www.lalpathlabs.com",
    "timings": "08:00 AM - 08:00 PM",
    "services": [
      "Path + Radio",
      "ECG",
      "USG",
      "ECHO",
      "Pathology"
    ],
    "latitude": 28.567832790488417,
    "longitude": 77.2148510228912,
    "is_nabl_accredited": true,
    "is_cghs_empanelled": true,
    "data_source": "Excel Dataset"
  },
  {
    "name": "Dr Lal PathLabs - LPL-Greater Kailash",
    "address": "Ground Floor, 101 & 102, E-540, Greater Kailash Part-II, New Delhi-110048",
    "city": "South Delhi",
    "state": "DNCR",
    "pincode": "110048",
    "phone": "011-3988 5050",
    "website": "https://www.lalpathlabs.com",
    "timings": "08:00 AM - 08:00 PM",
    "services": [
      "Path + Radio",
      "XRAY",
      "ECG",
      "USG",
      "ECHO",
      "TMT",
      "PFT",
      "AUDIOMETRY",
      "Pathology"
    ],
    "latitude": 28.565791106378203,
    "longitude": 77.23097472091881,
    "is_nabl_accredited": true,
    "is_cghs_empanelled": true,
    "data_source": "Excel Dataset"
  },
  {
    "name": "Dr Lal PathLabs - A70 Kaushalya Park Lab",
    "address": "G 10 GROUND FLOOR, PLOT NO 1 KAUSHALYA PARK (HAUZ KHAS) NEW DELHI 110016",
    "city": "South Delhi",
    "state": "DNCR",
    "pincode": "110016",
    "phone": "011-3988 5050",
    "website": "https://www.lalpathlabs.com",
    "timings": "08:00 AM - 08:00 PM",
    "services": [
      "Path + Radio",
      "ECG",
      "USG",
      "ECHO",
      "TMT",
      "PFT",
      "Pathology"
    ],
    "latitude": 28.59979142446719,
    "longitude": 77.22127543935169,
    "is_nabl_accredited": true,
    "is_cghs_empanelled": true,
    "data_source": "Excel Dataset"
  },
  {
    "name": "Dr Lal PathLabs - PSC LAJPAT NAGAR",
    "address": "SHOP. NO. 3, C-1/103-104, OPPOSITE DEFENCE COLONY FLYOVER, LAJPAT NAGAR  1, NEW DELHI  1100024",
    "city": "South Delhi",
    "state": "DNCR",
    "pincode": "",
    "phone": "011-3988 5050",
    "website": "https://www.lalpathlabs.com",
    "timings": "08:00 AM - 08:00 PM",
    "services": [
      "Path",
      "Pathology"
    ],
    "latitude": 28.644779712640343,
    "longitude": 77.18250943592875,
    "is_nabl_accredited": true,
    "is_cghs_empanelled": true,
    "data_source": "Excel Dataset"
  },
  {
    "name": "Dr Lal PathLabs - PSC GREEN PARK",
    "address": "J 4 GREEN PARK MAIN NEW DELHI .110016",
    "city": "South Delhi",
    "state": "DNCR",
    "pincode": "110016",
    "phone": "011-3988 5050",
    "website": "https://www.lalpathlabs.com",
    "timings": "08:00 AM - 08:00 PM",
    "services": [
      "Path",
      "Pathology"
    ],
    "latitude": 28.630045269485755,
    "longitude": 77.1765738564218,
    "is_nabl_accredited": true,
    "is_cghs_empanelled": true,
    "data_source": "Excel Dataset"
  },
  {
    "name": "Dr Lal PathLabs - PSC HAUZ KHAS",
    "address": "D-6, Hauz Khas, Delhi-110016",
    "city": "South Delhi",
    "state": "DNCR",
    "pincode": "110016",
    "phone": "011-3988 5050",
    "website": "https://www.lalpathlabs.com",
    "timings": "08:00 AM - 08:00 PM",
    "services": [
      "Path",
      "Pathology"
    ],
    "latitude": 28.604938881831398,
    "longitude": 77.2374857696443,
    "is_nabl_accredited": true,
    "is_cghs_empanelled": true,
    "data_source": "Excel Dataset"
  },
  {
    "name": "Dr Lal PathLabs - PUNJABI BAGH - LAB",
    "address": "8, WEST AVENUE ROAD, PUNJABI BAGH(W), NEW DELHI-110026.",
    "city": "West Delhi",
    "state": "DNCR",
    "pincode": "110026",
    "phone": "011-3988 5050",
    "website": "https://www.lalpathlabs.com",
    "timings": "08:00 AM - 08:00 PM",
    "services": [
      "Path + Radio",
      "XRAY",
      "ECG",
      "USG",
      "ECHO",
      "TMT",
      "PFT",
      "Pathology"
    ],
    "latitude": 28.61554064345012,
    "longitude": 77.21968712284406,
    "is_nabl_accredited": true,
    "is_cghs_empanelled": true,
    "data_source": "Excel Dataset"
  },
  {
    "name": "Dr Lal PathLabs - TILAK NAGAR LAB",
    "address": "4B/13, NEAR METRO PILLAR NO.494, TILAK NAGAR, NEW DELHI - 110018",
    "city": "West Delhi",
    "state": "DNCR",
    "pincode": "110018",
    "phone": "011-3988 5050",
    "website": "https://www.lalpathlabs.com",
    "timings": "08:00 AM - 08:00 PM",
    "services": [
      "Path + Radio",
      "XRAY",
      "ECG",
      "USG",
      "ECHO",
      "Pathology"
    ],
    "latitude": 28.564592094800844,
    "longitude": 77.16421072856079,
    "is_nabl_accredited": true,
    "is_cghs_empanelled": true,
    "data_source": "Excel Dataset"
  },
  {
    "name": "Dr Lal PathLabs - DWARKA -2",
    "address": "Plot No. 60, Sector 12 B, Beside Bal Bharti School, Dwarka-New Delhi-110075",
    "city": "West Delhi",
    "state": "DNCR",
    "pincode": "110075",
    "phone": "011-3988 5050",
    "website": "https://www.lalpathlabs.com",
    "timings": "08:00 AM - 08:00 PM",
    "services": [
      "Path + Radio",
      "XRAY",
      "ECG",
      "USG",
      "ECHO",
      "TMT",
      "Pathology"
    ],
    "latitude": 28.567972821465954,
    "longitude": 77.16250005700276,
    "is_nabl_accredited": true,
    "is_cghs_empanelled": true,
    "data_source": "Excel Dataset"
  },
  {
    "name": "Dr Lal PathLabs - LPL Rajouri Garden",
    "address": "J13/44B , Rajouri Garden, New Delhi-110027",
    "city": "West Delhi",
    "state": "DNCR",
    "pincode": "110027",
    "phone": "011-3988 5050",
    "website": "https://www.lalpathlabs.com",
    "timings": "08:00 AM - 08:00 PM",
    "services": [
      "Path + Radio",
      "USG",
      "Pathology"
    ],
    "latitude": 28.5713463971674,
    "longitude": 77.19898463739291,
    "is_nabl_accredited": true,
    "is_cghs_empanelled": true,
    "data_source": "Excel Dataset"
  },
  {
    "name": "Dr Lal PathLabs - LPL Pachim Vihar",
    "address": "B-1/10 Ground Floor, Pashim Vihar, Jwala Heri Road, Near PC Jewellers New Delhi-110063",
    "city": "West Delhi",
    "state": "DNCR",
    "pincode": "110063",
    "phone": "011-3988 5050",
    "website": "https://www.lalpathlabs.com",
    "timings": "08:00 AM - 08:00 PM",
    "services": [
      "Path",
      "Pathology"
    ],
    "latitude": 28.647909726455566,
    "longitude": 77.2038168726623,
    "is_nabl_accredited": true,
    "is_cghs_empanelled": true,
    "data_source": "Excel Dataset"
  },
  {
    "name": "Dr Lal PathLabs - PSC JANAK PURI",
    "address": "B-29, SHOPPING CENTER ,LK-B, OPP PNB, JANAKPURI NEW DELHI 110058",
    "city": "West Delhi",
    "state": "DNCR",
    "pincode": "110058",
    "phone": "011-3988 5050",
    "website": "https://www.lalpathlabs.com",
    "timings": "08:00 AM - 08:00 PM",
    "services": [
      "Path",
      "Pathology"
    ],
    "latitude": 28.650500643028483,
    "longitude": 77.2475902679415,
    "is_nabl_accredited": true,
    "is_cghs_empanelled": true,
    "data_source": "Excel Dataset"
  },
  {
    "name": "Dr Lal PathLabs - PSC JANAK PURI-2",
    "address": "C-4,A/41A,JANAKPURI NEW DELHI 110058.",
    "city": "West Delhi",
    "state": "DNCR",
    "pincode": "110058",
    "phone": "011-3988 5050",
    "website": "https://www.lalpathlabs.com",
    "timings": "08:00 AM - 08:00 PM",
    "services": [
      "Path",
      "Pathology"
    ],
    "latitude": 28.585729332355545,
    "longitude": 77.1702056259362,
    "is_nabl_accredited": true,
    "is_cghs_empanelled": true,
    "data_source": "Excel Dataset"
  },
  {
    "name": "Dr Lal PathLabs - PANJARA POLE",
    "address": "A103/104/203, Aasthan Complex, Opposite Polytechnic, Panjara Pole, Ahmedabad, Gujarat-380015",
    "city": "Ahmedabad",
    "state": "Gujrat",
    "pincode": "380015",
    "phone": "011-3988 5050",
    "website": "https://www.lalpathlabs.com",
    "timings": "08:00 AM - 08:00 PM",
    "services": [
      "Path",
      "Pathology"
    ],
    "latitude": 23.036373941115496,
    "longitude": 72.56652170314146,
    "is_nabl_accredited": true,
    "is_cghs_empanelled": true,
    "data_source": "Excel Dataset"
  },
  {
    "name": "Dr Lal PathLabs - RELIEF ROAD",
    "address": "Pir Mohamadshah Mansion, Gheekanta Char Rasta, Relief Road, Ahmedabad- 380001",
    "city": "Ahmedabad",
    "state": "Gujrat",
    "pincode": "380001",
    "phone": "011-3988 5050",
    "website": "https://www.lalpathlabs.com",
    "timings": "08:00 AM - 08:00 PM",
    "services": [
      "Path",
      "Pathology"
    ],
    "latitude": 23.06821288996387,
    "longitude": 72.59938823421518,
    "is_nabl_accredited": true,
    "is_cghs_empanelled": true,
    "data_source": "Excel Dataset"
  },
  {
    "name": "Dr Lal PathLabs - PRAHLAD NAGAR",
    "address": "Dr Lal Path Labs Ltd. | APL Institute of Clinical Laboratory & Research Pvt. Ltd.002/101/102, Titanium City Centre Mall, 100 Feet Road, Next to Sachin Tower, Prahladnagar, Satellite Ahmedabad - 3800",
    "city": "Ahmedabad",
    "state": "Gujrat",
    "pincode": "",
    "phone": "011-3988 5050",
    "website": "https://www.lalpathlabs.com",
    "timings": "08:00 AM - 08:00 PM",
    "services": [
      "Path",
      "Pathology"
    ],
    "latitude": 22.99760886727386,
    "longitude": 72.58237560059165,
    "is_nabl_accredited": true,
    "is_cghs_empanelled": true,
    "data_source": "Excel Dataset"
  },
  {
    "name": "Dr Lal PathLabs - VADODARA",
    "address": "Shop No.-1, 2, 3, 4, Capri House 2, 15 Sudha Nagar, Jetalpur Road, Vadodara, Gujarat-390007",
    "city": "Vadodara",
    "state": "Gujrat",
    "pincode": "390007",
    "phone": "011-3988 5050",
    "website": "https://www.lalpathlabs.com",
    "timings": "08:00 AM - 08:00 PM",
    "services": [
      "Path",
      "Pathology"
    ],
    "latitude": 28.57309477696701,
    "longitude": 77.19374565536667,
    "is_nabl_accredited": true,
    "is_cghs_empanelled": true,
    "data_source": "Excel Dataset"
  },
  {
    "name": "Dr Lal PathLabs - AMBALA-LAB",
    "address": "Address :- B-79 Ground Floor, Amrit Nagar Opp Ambala Club, Ambala city 134003",
    "city": "Ambala",
    "state": "Haryana",
    "pincode": "134003",
    "phone": "011-3988 5050",
    "website": "https://www.lalpathlabs.com",
    "timings": "08:00 AM - 08:00 PM",
    "services": [
      "Path",
      "Pathology"
    ],
    "latitude": 28.565092167981643,
    "longitude": 77.22913020405849,
    "is_nabl_accredited": true,
    "is_cghs_empanelled": true,
    "data_source": "Excel Dataset"
  },
  {
    "name": "Dr Lal PathLabs - PSC BAHADURGARH",
    "address": "Shop No.178/28, Mauza, Mahabir Park, Main Delhi Rohtak Road,Opposite Civil Hospital, Bahadurgarh-124507",
    "city": "Bahadurgarh",
    "state": "Haryana",
    "pincode": "124507",
    "phone": "011-3988 5050",
    "website": "https://www.lalpathlabs.com",
    "timings": "08:00 AM - 08:00 PM",
    "services": [
      "Path",
      "Pathology"
    ],
    "latitude": 28.62103751477892,
    "longitude": 77.16984887059567,
    "is_nabl_accredited": true,
    "is_cghs_empanelled": true,
    "data_source": "Excel Dataset"
  },
  {
    "name": "Dr Lal PathLabs - HISAR-1",
    "address": "Sector 13, Near Easy Day Store, Tosham Road, Hisar, Haryana-125005",
    "city": "Hisar",
    "state": "Haryana",
    "pincode": "125005",
    "phone": "011-3988 5050",
    "website": "https://www.lalpathlabs.com",
    "timings": "08:00 AM - 08:00 PM",
    "services": [
      "Path",
      "Pathology"
    ],
    "latitude": 28.623921043576022,
    "longitude": 77.25343705620371,
    "is_nabl_accredited": true,
    "is_cghs_empanelled": true,
    "data_source": "Excel Dataset"
  },
  {
    "name": "Dr Lal PathLabs - LPL Kaithal",
    "address": "2nd Floor, Plot No. 11C & 11D, M.I.T.C. Colony, Secretariat-Huda Road, Opp. Mini Secretariat, Near District Court Complex, Kaithal-136027",
    "city": "Kaithal",
    "state": "Haryana",
    "pincode": "136027",
    "phone": "011-3988 5050",
    "website": "https://www.lalpathlabs.com",
    "timings": "08:00 AM - 08:00 PM",
    "services": [
      "Path",
      "Pathology"
    ],
    "latitude": 28.64117324579407,
    "longitude": 77.23807005541362,
    "is_nabl_accredited": true,
    "is_cghs_empanelled": true,
    "data_source": "Excel Dataset"
  },
  {
    "name": "Dr Lal PathLabs - PSC KAITHAL",
    "address": "Ground Floor Dhandh Road, Kaithal Haryana- 136027",
    "city": "Kaithal",
    "state": "Haryana",
    "pincode": "136027",
    "phone": "011-3988 5050",
    "website": "https://www.lalpathlabs.com",
    "timings": "08:00 AM - 08:00 PM",
    "services": [
      "Path",
      "Pathology"
    ],
    "latitude": 28.642084125181757,
    "longitude": 77.25307701429949,
    "is_nabl_accredited": true,
    "is_cghs_empanelled": true,
    "data_source": "Excel Dataset"
  },
  {
    "name": "Dr Lal PathLabs - PSC PANCHKULA",
    "address": "SCO no 241 sec 20 Panchkula PIN CODE -134116",
    "city": "Panchkula",
    "state": "Haryana",
    "pincode": "134116",
    "phone": "011-3988 5050",
    "website": "https://www.lalpathlabs.com",
    "timings": "08:00 AM - 08:00 PM",
    "services": [
      "Path",
      "Pathology"
    ],
    "latitude": 28.58682430411894,
    "longitude": 77.18852260383943,
    "is_nabl_accredited": true,
    "is_cghs_empanelled": true,
    "data_source": "Excel Dataset"
  },
  {
    "name": "Dr Lal PathLabs - PANIPAT LAB",
    "address": "Scf -35, Ground Floor, Sector 11, Near New Angel Mall, Huda, Panipat, Haryana.-132103",
    "city": "Panipat",
    "state": "Haryana",
    "pincode": "132103",
    "phone": "011-3988 5050",
    "website": "https://www.lalpathlabs.com",
    "timings": "08:00 AM - 08:00 PM",
    "services": [
      "Path",
      "Pathology"
    ],
    "latitude": 28.645087137910952,
    "longitude": 77.17133633290138,
    "is_nabl_accredited": true,
    "is_cghs_empanelled": true,
    "data_source": "Excel Dataset"
  },
  {
    "name": "Dr Lal PathLabs - PSC REWARI",
    "address": "Near Ambedkar Chowk, Rewari, Haryana-123401",
    "city": "Rewari",
    "state": "Haryana",
    "pincode": "123401",
    "phone": "011-3988 5050",
    "website": "https://www.lalpathlabs.com",
    "timings": "08:00 AM - 08:00 PM",
    "services": [
      "Path",
      "Pathology"
    ],
    "latitude": 28.60835647753544,
    "longitude": 77.2329494422025,
    "is_nabl_accredited": true,
    "is_cghs_empanelled": true,
    "data_source": "Excel Dataset"
  },
  {
    "name": "Dr Lal PathLabs - PSC ROHTAK",
    "address": "1267, Chotu Ram Chownk, Opposite Nilli Kothi, Civil Road, Rohtak -Haryana-124001",
    "city": "Rohtak",
    "state": "Haryana",
    "pincode": "124001",
    "phone": "011-3988 5050",
    "website": "https://www.lalpathlabs.com",
    "timings": "08:00 AM - 08:00 PM",
    "services": [
      "Path",
      "Pathology"
    ],
    "latitude": 28.579540793952344,
    "longitude": 77.18592507289614,
    "is_nabl_accredited": true,
    "is_cghs_empanelled": true,
    "data_source": "Excel Dataset"
  },
  {
    "name": "Dr Lal PathLabs - SIRSA",
    "address": "GF, Circular Road, Multani Colony Near APEX Hospital, Sirsa, Haryana-125055",
    "city": "Sirsa",
    "state": "Haryana",
    "pincode": "125055",
    "phone": "011-3988 5050",
    "website": "https://www.lalpathlabs.com",
    "timings": "08:00 AM - 08:00 PM",
    "services": [
      "Path",
      "Pathology"
    ],
    "latitude": 28.633287136272873,
    "longitude": 77.20755088633597,
    "is_nabl_accredited": true,
    "is_cghs_empanelled": true,
    "data_source": "Excel Dataset"
  },
  {
    "name": "Dr Lal PathLabs - SONIPAT LAB",
    "address": "Scf-3, Sector 14, Main Market, Sonipat, Haryana-131001",
    "city": "Sonipat",
    "state": "Haryana",
    "pincode": "131001",
    "phone": "011-3988 5050",
    "website": "https://www.lalpathlabs.com",
    "timings": "08:00 AM - 08:00 PM",
    "services": [
      "Path",
      "Pathology"
    ],
    "latitude": 28.59365067504499,
    "longitude": 77.19435646697856,
    "is_nabl_accredited": true,
    "is_cghs_empanelled": true,
    "data_source": "Excel Dataset"
  },
  {
    "name": "Dr Lal PathLabs - YAMUNA NAGAR",
    "address": "67-A/L, Model Town Yamuna Nagar, Haryana-135001",
    "city": "Yamuna Nagar",
    "state": "Haryana",
    "pincode": "135001",
    "phone": "011-3988 5050",
    "website": "https://www.lalpathlabs.com",
    "timings": "08:00 AM - 08:00 PM",
    "services": [
      "Path",
      "Pathology"
    ],
    "latitude": 28.59968622700707,
    "longitude": 77.15927201183506,
    "is_nabl_accredited": true,
    "is_cghs_empanelled": true,
    "data_source": "Excel Dataset"
  },
  {
    "name": "Dr Lal PathLabs - PSC DHARAMSHALA",
    "address": "ROGI KALYAN SAMITI, ZONAL HOSPITAL, DHARAMSHALA, KANGRA-176215,HCP IND",
    "city": "Dharamshala",
    "state": "Himachal Pradesh",
    "pincode": "176215",
    "phone": "011-3988 5050",
    "website": "https://www.lalpathlabs.com",
    "timings": "08:00 AM - 08:00 PM",
    "services": [
      "Path",
      "Pathology"
    ],
    "latitude": 28.586195133873904,
    "longitude": 77.25062702351781,
    "is_nabl_accredited": true,
    "is_cghs_empanelled": true,
    "data_source": "Excel Dataset"
  },
  {
    "name": "Dr Lal PathLabs - SHIMLA LAB",
    "address": "Dr. Lal Path Lab Ltd, 1St Floor Sarab Complex, Nh-20 Shimla To Rampur Highway, Sanjauli Main Market, Shimla-171006",
    "city": "Shimla",
    "state": "Himachal Pradesh",
    "pincode": "171006",
    "phone": "011-3988 5050",
    "website": "https://www.lalpathlabs.com",
    "timings": "08:00 AM - 08:00 PM",
    "services": [
      "Path",
      "Pathology"
    ],
    "latitude": 28.608086981144222,
    "longitude": 77.17531060476936,
    "is_nabl_accredited": true,
    "is_cghs_empanelled": true,
    "data_source": "Excel Dataset"
  },
  {
    "name": "Dr Lal PathLabs - PSC SHIMLA",
    "address": "DR.LAL PATHLABS LTD., FIRST FLOOR MANSAROVER COTTAGE, NEAR IGMC LAKKAR BAZAR, SHIMLA - 171001",
    "city": "Shimla",
    "state": "Himachal Pradesh",
    "pincode": "171001",
    "phone": "011-3988 5050",
    "website": "https://www.lalpathlabs.com",
    "timings": "08:00 AM - 08:00 PM",
    "services": [
      "Path",
      "Pathology"
    ],
    "latitude": 28.579419362660026,
    "longitude": 77.22617669542477,
    "is_nabl_accredited": true,
    "is_cghs_empanelled": true,
    "data_source": "Excel Dataset"
  },
  {
    "name": "Dr Lal PathLabs - PSC TANDA",
    "address": "Dr Lal pathlabs ltd Ward No.-6 Village-Sadarpur Near RPGMC-Tanda P.O-Tanda District-Kangra(H.P) 176001",
    "city": "Tanda",
    "state": "Himachal Pradesh",
    "pincode": "176001",
    "phone": "011-3988 5050",
    "website": "https://www.lalpathlabs.com",
    "timings": "08:00 AM - 08:00 PM",
    "services": [
      "Path",
      "Pathology"
    ],
    "latitude": 28.617402619485713,
    "longitude": 77.17597232762772,
    "is_nabl_accredited": true,
    "is_cghs_empanelled": true,
    "data_source": "Excel Dataset"
  },
  {
    "name": "Dr Lal PathLabs - ANANTNAG",
    "address": "Saba Complex Khah Bazar,Anantnag,Kashmir-192101",
    "city": "Anantnag",
    "state": "J&K",
    "pincode": "192101",
    "phone": "011-3988 5050",
    "website": "https://www.lalpathlabs.com",
    "timings": "08:00 AM - 08:00 PM",
    "services": [
      "Path",
      "Pathology"
    ],
    "latitude": 28.575880554330197,
    "longitude": 77.24421327897836,
    "is_nabl_accredited": true,
    "is_cghs_empanelled": true,
    "data_source": "Excel Dataset"
  },
  {
    "name": "Dr Lal PathLabs - PSC JAMMU",
    "address": "disco road indra colony near dream land public school janipur Jammu PIN CODE -180001",
    "city": "Jammu",
    "state": "J&K",
    "pincode": "180001",
    "phone": "011-3988 5050",
    "website": "https://www.lalpathlabs.com",
    "timings": "08:00 AM - 08:00 PM",
    "services": [
      "Path",
      "Pathology"
    ],
    "latitude": 28.629053305338108,
    "longitude": 77.23039272439169,
    "is_nabl_accredited": true,
    "is_cghs_empanelled": true,
    "data_source": "Excel Dataset"
  },
  {
    "name": "Dr Lal PathLabs - LPL JAMMU 2",
    "address": "Ground Floor,21C, B Block Gandhi Nagar Jammu J &K PIN CODE -180001",
    "city": "Jammu",
    "state": "J&K",
    "pincode": "180001",
    "phone": "011-3988 5050",
    "website": "https://www.lalpathlabs.com",
    "timings": "08:00 AM - 08:00 PM",
    "services": [
      "Path",
      "Pathology"
    ],
    "latitude": 28.56816327115288,
    "longitude": 77.23794446208143,
    "is_nabl_accredited": true,
    "is_cghs_empanelled": true,
    "data_source": "Excel Dataset"
  },
  {
    "name": "Dr Lal PathLabs - PSC JAMMU 1",
    "address": "shop no. 2&3 choudhary complex near bagad mandi chowk trikuta nagar Jammu PIN CODE 180012",
    "city": "Jammu",
    "state": "J&K",
    "pincode": "180012",
    "phone": "011-3988 5050",
    "website": "https://www.lalpathlabs.com",
    "timings": "08:00 AM - 08:00 PM",
    "services": [
      "Path",
      "Pathology"
    ],
    "latitude": 28.589506292555637,
    "longitude": 77.16933282959391,
    "is_nabl_accredited": true,
    "is_cghs_empanelled": true,
    "data_source": "Excel Dataset"
  },
  {
    "name": "Dr Lal PathLabs - SRINAGAR",
    "address": "140-A,Kak Sarai,Karan Nagar.Srinagar-190010,J&K.",
    "city": "Srinagar",
    "state": "J&K",
    "pincode": "190010",
    "phone": "011-3988 5050",
    "website": "https://www.lalpathlabs.com",
    "timings": "08:00 AM - 08:00 PM",
    "services": [
      "Path",
      "Pathology"
    ],
    "latitude": 28.613815911453383,
    "longitude": 77.21324594801843,
    "is_nabl_accredited": true,
    "is_cghs_empanelled": true,
    "data_source": "Excel Dataset"
  },
  {
    "name": "Dr Lal PathLabs - DHANBAD",
    "address": "Unit G-3, Ozone Center, Ashok Nagar, Dhansar Dhanbad, Jharkhand, PIN-828106",
    "city": "Dhanbad",
    "state": "Jharkhand",
    "pincode": "828106",
    "phone": "011-3988 5050",
    "website": "https://www.lalpathlabs.com",
    "timings": "08:00 AM - 08:00 PM",
    "services": [
      "Path",
      "Pathology"
    ],
    "latitude": 28.616494440602533,
    "longitude": 77.18826202149029,
    "is_nabl_accredited": true,
    "is_cghs_empanelled": true,
    "data_source": "Excel Dataset"
  },
  {
    "name": "Dr Lal PathLabs - RANCHI LAB",
    "address": "1st Floor, SOURABH Tower Plot-615, Bariatu Road Near Karam Toli Chowk, Ranchi JK-834008",
    "city": "Ranchi",
    "state": "Jharkhand",
    "pincode": "834008",
    "phone": "011-3988 5050",
    "website": "https://www.lalpathlabs.com",
    "timings": "08:00 AM - 08:00 PM",
    "services": [
      "Path",
      "Pathology"
    ],
    "latitude": 28.589745501196486,
    "longitude": 77.25500249553228,
    "is_nabl_accredited": true,
    "is_cghs_empanelled": true,
    "data_source": "Excel Dataset"
  },
  {
    "name": "Dr Lal PathLabs - Psc Ranchi",
    "address": "S81 PSC RANCHI,SHOP NO.119,JASCON PLAZA,44/C CIRCULAR ROAD,LALPUR,RANCHI-834001,JHARKHAND",
    "city": "Ranchi",
    "state": "Jharkhand",
    "pincode": "834001",
    "phone": "011-3988 5050",
    "website": "https://www.lalpathlabs.com",
    "timings": "08:00 AM - 08:00 PM",
    "services": [
      "Path",
      "Pathology"
    ],
    "latitude": 28.574723067108042,
    "longitude": 77.16448214765613,
    "is_nabl_accredited": true,
    "is_cghs_empanelled": true,
    "data_source": "Excel Dataset"
  },
  {
    "name": "Dr Lal PathLabs - LPL White Field",
    "address": "Kishore Kumar | | Dr. Lal PathLabs Ltd. | #183,1st Floor,Main Road,Above State Bank of Mysore,Opp Forum Value Mall,Whitefield BENGALURU - 560066",
    "city": "Banglore",
    "state": "Karnataka",
    "pincode": "560066",
    "phone": "011-3988 5050",
    "website": "https://www.lalpathlabs.com",
    "timings": "08:00 AM - 08:00 PM",
    "services": [
      "Path + Radio",
      "XRAY",
      "ECG",
      "TMT",
      "AUDIOMETRY",
      "Pathology"
    ],
    "latitude": 28.608518524408794,
    "longitude": 77.1790424723584,
    "is_nabl_accredited": true,
    "is_cghs_empanelled": true,
    "data_source": "Excel Dataset"
  },
  {
    "name": "Dr Lal PathLabs - LPL-SANTOSH DIAGNOSTICS & SCAN CENTRE LAB",
    "address": "#69, St.John's church road, Near Coles Park, Bengaluru - 560005",
    "city": "Banglore",
    "state": "Karnataka",
    "pincode": "560005",
    "phone": "011-3988 5050",
    "website": "https://www.lalpathlabs.com",
    "timings": "08:00 AM - 08:00 PM",
    "services": [
      "Path",
      "Pathology"
    ],
    "latitude": 28.656274130200977,
    "longitude": 77.17415198918044,
    "is_nabl_accredited": true,
    "is_cghs_empanelled": true,
    "data_source": "Excel Dataset"
  },
  {
    "name": "Dr Lal PathLabs - FEATHERLITE (REFERENCE LAB)",
    "address": "Bengaluru Reference Laboratory, #17/1, \"The Address\" Opp Cessna Business Park, Outer Ring Road, Kadubeesanahalli, Varthur Hobli Bengaluru - 560103",
    "city": "Banglore",
    "state": "Karnataka",
    "pincode": "560103",
    "phone": "011-3988 5050",
    "website": "https://www.lalpathlabs.com",
    "timings": "08:00 AM - 08:00 PM",
    "services": [
      "Path",
      "Pathology"
    ],
    "latitude": 28.592371237529225,
    "longitude": 77.22687007765808,
    "is_nabl_accredited": true,
    "is_cghs_empanelled": true,
    "data_source": "Excel Dataset"
  },
  {
    "name": "Dr Lal PathLabs - PSC YALAHANKA",
    "address": "Ground floor 10, 1st A main road B sector 117,SFS B1&B2 4th ward yalahanka satellite town Bangalore-560064",
    "city": "Banglore",
    "state": "Karnataka",
    "pincode": "560064",
    "phone": "011-3988 5050",
    "website": "https://www.lalpathlabs.com",
    "timings": "08:00 AM - 08:00 PM",
    "services": [
      "Path",
      "Pathology"
    ],
    "latitude": 28.58695477700882,
    "longitude": 77.16832562953778,
    "is_nabl_accredited": true,
    "is_cghs_empanelled": true,
    "data_source": "Excel Dataset"
  },
  {
    "name": "Dr Lal PathLabs - PSC BTM LAYOUT",
    "address": "Ground floor,formed by BDA,16TH Main Road,1st Phase,BTM 2nd stage,Bangalore-560076",
    "city": "Banglore",
    "state": "Karnataka",
    "pincode": "560076",
    "phone": "011-3988 5050",
    "website": "https://www.lalpathlabs.com",
    "timings": "08:00 AM - 08:00 PM",
    "services": [
      "Path",
      "Pathology"
    ],
    "latitude": 28.579435605471808,
    "longitude": 77.18466621832927,
    "is_nabl_accredited": true,
    "is_cghs_empanelled": true,
    "data_source": "Excel Dataset"
  },
  {
    "name": "Dr Lal PathLabs - PSC SANJAY NAGAR",
    "address": "No 44 4th cross road Ashwath nagar, Sanjay nagar main road Bangalore-94",
    "city": "Banglore",
    "state": "Karnataka",
    "pincode": "",
    "phone": "011-3988 5050",
    "website": "https://www.lalpathlabs.com",
    "timings": "08:00 AM - 08:00 PM",
    "services": [
      "Path",
      "Pathology"
    ],
    "latitude": 28.60247897541945,
    "longitude": 77.19516401552643,
    "is_nabl_accredited": true,
    "is_cghs_empanelled": true,
    "data_source": "Excel Dataset"
  },
  {
    "name": "Dr Lal PathLabs - BRL (bangalore)",
    "address": "17/1,THE ADDRESSopp Cessna business park,outer ring road,kadubeesanahalli, varthur hobli,bengaluru-560103",
    "city": "Banglore",
    "state": "Karnataka",
    "pincode": "560103",
    "phone": "011-3988 5050",
    "website": "https://www.lalpathlabs.com",
    "timings": "08:00 AM - 08:00 PM",
    "services": [
      "Path",
      "Pathology"
    ],
    "latitude": 28.614831867780634,
    "longitude": 77.25010211393818,
    "is_nabl_accredited": true,
    "is_cghs_empanelled": true,
    "data_source": "Excel Dataset"
  },
  {
    "name": "Dr Lal PathLabs - PSC KUMARSWAMYLAYOUT",
    "address": "#1539, upper ground floor, sharoff square, kumarswamylayout, Bangalore 560078",
    "city": "Banglore",
    "state": "Karnataka",
    "pincode": "560078",
    "phone": "011-3988 5050",
    "website": "https://www.lalpathlabs.com",
    "timings": "08:00 AM - 08:00 PM",
    "services": [
      "Path",
      "Pathology"
    ],
    "latitude": 28.64866121070111,
    "longitude": 77.1858971140087,
    "is_nabl_accredited": true,
    "is_cghs_empanelled": true,
    "data_source": "Excel Dataset"
  },
  {
    "name": "Dr Lal PathLabs - PSC BASAVANAGUDI",
    "address": "#54/6,54/8,(54/3)OPPOSITE POLICE STATION,BASAVANAGUDI,BANGALORE-560004,KARNATAKA",
    "city": "Banglore",
    "state": "Karnataka",
    "pincode": "560004",
    "phone": "011-3988 5050",
    "website": "https://www.lalpathlabs.com",
    "timings": "08:00 AM - 08:00 PM",
    "services": [
      "Path",
      "Pathology"
    ],
    "latitude": 28.609416632899645,
    "longitude": 77.196485986187,
    "is_nabl_accredited": true,
    "is_cghs_empanelled": true,
    "data_source": "Excel Dataset"
  },
  {
    "name": "Dr Lal PathLabs - PSC INDIRANAGAR",
    "address": "Ground floor, 197/a double road, indiranagar Bangalore-560038",
    "city": "Banglore",
    "state": "Karnataka",
    "pincode": "560038",
    "phone": "011-3988 5050",
    "website": "https://www.lalpathlabs.com",
    "timings": "08:00 AM - 08:00 PM",
    "services": [
      "Path",
      "Pathology"
    ],
    "latitude": 28.638872803360506,
    "longitude": 77.18912404055455,
    "is_nabl_accredited": true,
    "is_cghs_empanelled": true,
    "data_source": "Excel Dataset"
  },
  {
    "name": "Dr Lal PathLabs - PSC RAJAJINAGAR",
    "address": "No.90/B, Corporation No.12/1, Ward No.4, 18th Cross 1st Block 19th Main Road Rajajinagar Bangalore-560010",
    "city": "Banglore",
    "state": "Karnataka",
    "pincode": "560010",
    "phone": "011-3988 5050",
    "website": "https://www.lalpathlabs.com",
    "timings": "08:00 AM - 08:00 PM",
    "services": [
      "Path",
      "Pathology"
    ],
    "latitude": 28.614708637630272,
    "longitude": 77.23598793458282,
    "is_nabl_accredited": true,
    "is_cghs_empanelled": true,
    "data_source": "Excel Dataset"
  },
  {
    "name": "Dr Lal PathLabs - PSC KAGDASAPURA",
    "address": "ground floor S R Enclave 6th cross c v raman nagar kaggadspura main road bangalore-560093",
    "city": "Banglore",
    "state": "Karnataka",
    "pincode": "560093",
    "phone": "011-3988 5050",
    "website": "https://www.lalpathlabs.com",
    "timings": "08:00 AM - 08:00 PM",
    "services": [
      "Path",
      "Pathology"
    ],
    "latitude": 28.662266793842917,
    "longitude": 77.22821561434688,
    "is_nabl_accredited": true,
    "is_cghs_empanelled": true,
    "data_source": "Excel Dataset"
  },
  {
    "name": "Dr Lal PathLabs - PSC ULSOOR",
    "address": "#15/1, Cambridge road Ulsoor, bangalore - 560008",
    "city": "Banglore",
    "state": "Karnataka",
    "pincode": "560008",
    "phone": "011-3988 5050",
    "website": "https://www.lalpathlabs.com",
    "timings": "08:00 AM - 08:00 PM",
    "services": [
      "Path",
      "Pathology"
    ],
    "latitude": 28.591152817859108,
    "longitude": 77.21381168593476,
    "is_nabl_accredited": true,
    "is_cghs_empanelled": true,
    "data_source": "Excel Dataset"
  },
  {
    "name": "Dr Lal PathLabs - MYSORE",
    "address": "#C/1, Sigma Complex, Next to KPR SUZUKI Show Room, New Kanthraj Urs Road, Kuvempu Nagar, Mysore-570023.",
    "city": "Mysore",
    "state": "Karnataka",
    "pincode": "570023",
    "phone": "011-3988 5050",
    "website": "https://www.lalpathlabs.com",
    "timings": "08:00 AM - 08:00 PM",
    "services": [
      "Path",
      "Pathology"
    ],
    "latitude": 28.606901313856845,
    "longitude": 77.1847459835929,
    "is_nabl_accredited": true,
    "is_cghs_empanelled": true,
    "data_source": "Excel Dataset"
  },
  {
    "name": "Dr Lal PathLabs - CALICUT",
    "address": "Hill View Building, Near C.H.Mosque, Opp.to Dental College , Govt Medical College, Calicut",
    "city": "Calikut",
    "state": "Kerala",
    "pincode": "",
    "phone": "011-3988 5050",
    "website": "https://www.lalpathlabs.com",
    "timings": "08:00 AM - 08:00 PM",
    "services": [
      "Path",
      "Pathology"
    ],
    "latitude": 28.608488999349888,
    "longitude": 77.17610970513526,
    "is_nabl_accredited": true,
    "is_cghs_empanelled": true,
    "data_source": "Excel Dataset"
  },
  {
    "name": "Dr Lal PathLabs - LPL Cochin",
    "address": "Doctors Diagnostic Centre International, Thampi Building, Opp.College Ground, M.G.Road, Cochin, Kerala Ernakulam - 682011",
    "city": "Cochin",
    "state": "Kerala",
    "pincode": "682011",
    "phone": "011-3988 5050",
    "website": "https://www.lalpathlabs.com",
    "timings": "08:00 AM - 08:00 PM",
    "services": [
      "Path",
      "Pathology"
    ],
    "latitude": 28.58375598109825,
    "longitude": 77.22524544489009,
    "is_nabl_accredited": true,
    "is_cghs_empanelled": true,
    "data_source": "Excel Dataset"
  },
  {
    "name": "Dr Lal PathLabs - MEDICAL COLLEGE ROAD- TRIVANDRUM",
    "address": "GF & FF & SF , TC N0 1 /801 (3,4&5) ,Opp Tagore Garden ,Medical College Road , Re -Sy No 20 , Cheruvakkal Village , Thiruvananthapuram ,Kerala 4010310",
    "city": "Trivendrum",
    "state": "Kerala",
    "pincode": "",
    "phone": "011-3988 5050",
    "website": "https://www.lalpathlabs.com",
    "timings": "08:00 AM - 08:00 PM",
    "services": [
      "Path",
      "Pathology"
    ],
    "latitude": 28.56429401772669,
    "longitude": 77.23678099102625,
    "is_nabl_accredited": true,
    "is_cghs_empanelled": true,
    "data_source": "Excel Dataset"
  },
  {
    "name": "Dr Lal PathLabs - BHOPAL II",
    "address": "Plot No.05, Mandakini Housing Society, Near Apurti Shopping Mall, Kolar Main Road, Bhopal, M.P. - 462042",
    "city": "Bhopal",
    "state": "Madhya Pradesh",
    "pincode": "462042",
    "phone": "011-3988 5050",
    "website": "https://www.lalpathlabs.com",
    "timings": "08:00 AM - 08:00 PM",
    "services": [
      "Path",
      "Pathology"
    ],
    "latitude": 28.565024903792132,
    "longitude": 77.2154228574539,
    "is_nabl_accredited": true,
    "is_cghs_empanelled": true,
    "data_source": "Excel Dataset"
  },
  {
    "name": "Dr Lal PathLabs - Psc Bhopal",
    "address": "Dr lalpathlabs 131/10 golden tower near sargam talkies mp nagar zone 2 bhopal 462016 m.p.",
    "city": "Bhopal",
    "state": "Madhya Pradesh",
    "pincode": "462016",
    "phone": "011-3988 5050",
    "website": "https://www.lalpathlabs.com",
    "timings": "08:00 AM - 08:00 PM",
    "services": [
      "Path",
      "Pathology"
    ],
    "latitude": 28.643906770708323,
    "longitude": 77.23615107915609,
    "is_nabl_accredited": true,
    "is_cghs_empanelled": true,
    "data_source": "Excel Dataset"
  },
  {
    "name": "Dr Lal PathLabs - GWALIOR LAB",
    "address": "GF-1 THE CENTRAL MALL,S.D.M.ROAD,NEAR-ACHLESWAR MANDIR LASHKAR,GWALIOR-474003",
    "city": "Gwalior",
    "state": "Madhya Pradesh",
    "pincode": "474003",
    "phone": "011-3988 5050",
    "website": "https://www.lalpathlabs.com",
    "timings": "08:00 AM - 08:00 PM",
    "services": [
      "Path",
      "Pathology"
    ],
    "latitude": 28.608909385090076,
    "longitude": 77.25756072576287,
    "is_nabl_accredited": true,
    "is_cghs_empanelled": true,
    "data_source": "Excel Dataset"
  },
  {
    "name": "Dr Lal PathLabs - INDORE II",
    "address": "H No 1, Santoshi Heights, Chandralok Colony, Khajrana Main Rd, Indore - 452018",
    "city": "Indore",
    "state": "Madhya Pradesh",
    "pincode": "452018",
    "phone": "011-3988 5050",
    "website": "https://www.lalpathlabs.com",
    "timings": "08:00 AM - 08:00 PM",
    "services": [
      "Path",
      "Pathology"
    ],
    "latitude": 22.765870912565116,
    "longitude": 75.82427990367768,
    "is_nabl_accredited": true,
    "is_cghs_empanelled": true,
    "data_source": "Excel Dataset"
  },
  {
    "name": "Dr Lal PathLabs - JABALPUR",
    "address": "46, Ahuja Tower Russel Chowk, Opp. Bhawartal Garden, Jabalpur - 482001",
    "city": "Jabalpur",
    "state": "Madhya Pradesh",
    "pincode": "482001",
    "phone": "011-3988 5050",
    "website": "https://www.lalpathlabs.com",
    "timings": "08:00 AM - 08:00 PM",
    "services": [
      "Path",
      "Pathology"
    ],
    "latitude": 28.631859552350704,
    "longitude": 77.17239880999976,
    "is_nabl_accredited": true,
    "is_cghs_empanelled": true,
    "data_source": "Excel Dataset"
  },
  {
    "name": "Dr Lal PathLabs - SAGAR LAB",
    "address": "Dr. Lal Path Labs Ltd, Ground floor, in front of Bundelkhand medical college, Tilli , Near Goutam traders , Sagar Madhya Pradesh- 470001",
    "city": "Sagar",
    "state": "Madhya Pradesh",
    "pincode": "470001",
    "phone": "011-3988 5050",
    "website": "https://www.lalpathlabs.com",
    "timings": "08:00 AM - 08:00 PM",
    "services": [
      "Path",
      "Pathology"
    ],
    "latitude": 28.613282352171147,
    "longitude": 77.17611140237317,
    "is_nabl_accredited": true,
    "is_cghs_empanelled": true,
    "data_source": "Excel Dataset"
  },
  {
    "name": "Dr Lal PathLabs - AURANGABAD",
    "address": "227, Near Kasbekar Hospital, Varad Ganesh Mandir Road, Samarth Nagar, Aurangabad-431001",
    "city": "Aurangabad",
    "state": "Maharashtra",
    "pincode": "431001",
    "phone": "011-3988 5050",
    "website": "https://www.lalpathlabs.com",
    "timings": "08:00 AM - 08:00 PM",
    "services": [
      "Path",
      "Pathology"
    ],
    "latitude": 28.604905962634202,
    "longitude": 77.20010986922676,
    "is_nabl_accredited": true,
    "is_cghs_empanelled": true,
    "data_source": "Excel Dataset"
  },
  {
    "name": "Dr Lal PathLabs - LPL Nagpur",
    "address": "Plot no 07 Ground floor near Hotel Sunny International Dhantoli Wardha Road Nagpur - 440012",
    "city": "Nagpur",
    "state": "Maharashtra",
    "pincode": "440012",
    "phone": "011-3988 5050",
    "website": "https://www.lalpathlabs.com",
    "timings": "08:00 AM - 08:00 PM",
    "services": [
      "Path",
      "Pathology"
    ],
    "latitude": 21.10751557877731,
    "longitude": 79.13306394581836,
    "is_nabl_accredited": true,
    "is_cghs_empanelled": true,
    "data_source": "Excel Dataset"
  },
  {
    "name": "Dr Lal PathLabs - PSC NAGPUR",
    "address": "Plot No 203 ,Shop no 3 Tajshree Vihar Near Tiranga Chowk Nandanvan Nagpur - 440009",
    "city": "Nagpur",
    "state": "Maharashtra",
    "pincode": "440009",
    "phone": "011-3988 5050",
    "website": "https://www.lalpathlabs.com",
    "timings": "08:00 AM - 08:00 PM",
    "services": [
      "Path",
      "Pathology"
    ],
    "latitude": 21.177468284452047,
    "longitude": 79.05610714329683,
    "is_nabl_accredited": true,
    "is_cghs_empanelled": true,
    "data_source": "Excel Dataset"
  },
  {
    "name": "Dr Lal PathLabs - PSC SOMALWADA(NAGPUR)",
    "address": "no 16, Situated at Sneh Nagar, Survey no 29/1 & 29/2, Mouza-Somalwada, Nagpur-440015",
    "city": "Nagpur",
    "state": "Maharashtra",
    "pincode": "440015",
    "phone": "011-3988 5050",
    "website": "https://www.lalpathlabs.com",
    "timings": "08:00 AM - 08:00 PM",
    "services": [
      "Path",
      "Pathology"
    ],
    "latitude": 21.099389856157007,
    "longitude": 79.12503682655291,
    "is_nabl_accredited": true,
    "is_cghs_empanelled": true,
    "data_source": "Excel Dataset"
  },
  {
    "name": "Dr Lal PathLabs - PSC NASIK",
    "address": "Shop No.24,Upper Ground Floor,Woodland Tower Apt, Old Gangapur Naka,Gangapur Road,Nasik-422005",
    "city": "Nasik",
    "state": "Maharashtra",
    "pincode": "422005",
    "phone": "011-3988 5050",
    "website": "https://www.lalpathlabs.com",
    "timings": "08:00 AM - 08:00 PM",
    "services": [
      "Path",
      "Pathology"
    ],
    "latitude": 28.584294586179535,
    "longitude": 77.21624824038169,
    "is_nabl_accredited": true,
    "is_cghs_empanelled": true,
    "data_source": "Excel Dataset"
  },
  {
    "name": "Dr Lal PathLabs - PUNE-2 LAB",
    "address": "Ground Floor, Anand Emerald, Sakore Nagar, New Airport Road, Near Symbiosis International University, Viman Nagar Pune - 411014",
    "city": "Pune",
    "state": "Maharashtra",
    "pincode": "411014",
    "phone": "011-3988 5050",
    "website": "https://www.lalpathlabs.com",
    "timings": "08:00 AM - 08:00 PM",
    "services": [
      "Path + Radio",
      "USG",
      "Pathology"
    ],
    "latitude": 18.557373899235564,
    "longitude": 73.88522742100052,
    "is_nabl_accredited": true,
    "is_cghs_empanelled": true,
    "data_source": "Excel Dataset"
  },
  {
    "name": "Dr Lal PathLabs - LPL PUNE 3 (SHINAGARE)",
    "address": "Shop no 2 & 3,Vikram Chambers,Near Gokhle Plaza,Nera Ramkrushnamore Sabahgruh,Chinchwad Gaon,Pune-411033",
    "city": "Pune",
    "state": "Maharashtra",
    "pincode": "411033",
    "phone": "011-3988 5050",
    "website": "https://www.lalpathlabs.com",
    "timings": "08:00 AM - 08:00 PM",
    "services": [
      "Path",
      "Pathology"
    ],
    "latitude": 18.512848347576,
    "longitude": 73.88659103091686,
    "is_nabl_accredited": true,
    "is_cghs_empanelled": true,
    "data_source": "Excel Dataset"
  },
  {
    "name": "Dr Lal PathLabs - PSC PUNE",
    "address": "40, GROUND FLOOR, SACRED HEART TOWN SHOPPING COMPLEX, 75/2/2, WANANWADI. Pune - 411040",
    "city": "Pune",
    "state": "Maharashtra",
    "pincode": "411040",
    "phone": "011-3988 5050",
    "website": "https://www.lalpathlabs.com",
    "timings": "08:00 AM - 08:00 PM",
    "services": [
      "Path",
      "Pathology"
    ],
    "latitude": 18.480956229723784,
    "longitude": 73.8884019227272,
    "is_nabl_accredited": true,
    "is_cghs_empanelled": true,
    "data_source": "Excel Dataset"
  },
  {
    "name": "Dr Lal PathLabs - KARAD-PUNE-SHREE ICU&MRC PVT.LTD.",
    "address": "C/O SHREE HOSPITAL,747 MANGALWAR PETH, KARAD-415110",
    "city": "Pune",
    "state": "Maharashtra",
    "pincode": "415110",
    "phone": "011-3988 5050",
    "website": "https://www.lalpathlabs.com",
    "timings": "08:00 AM - 08:00 PM",
    "services": [
      "Path",
      "Pathology"
    ],
    "latitude": 18.53517107331124,
    "longitude": 73.83853450873609,
    "is_nabl_accredited": true,
    "is_cghs_empanelled": true,
    "data_source": "Excel Dataset"
  },
  {
    "name": "Dr Lal PathLabs - LAB - SOLAPUR",
    "address": "Chief of Lab  Dr. Lal PathLabs Ltd.  Ground Floor ,H.No-149,in Railway line Peth ,Solapur ,Maharashtra  Solapur-413001",
    "city": "Solapur",
    "state": "Maharashtra",
    "pincode": "413001",
    "phone": "011-3988 5050",
    "website": "https://www.lalpathlabs.com",
    "timings": "08:00 AM - 08:00 PM",
    "services": [
      "Path",
      "Pathology"
    ],
    "latitude": 28.59859780294631,
    "longitude": 77.24864956906497,
    "is_nabl_accredited": true,
    "is_cghs_empanelled": true,
    "data_source": "Excel Dataset"
  },
  {
    "name": "Dr Lal PathLabs - THANE - LAB",
    "address": "16A-16B, Sohum Plaza, Godbunder Road, Manpada, Thane (West), Thane, Maharashtra - 400607",
    "city": "Thane",
    "state": "Maharashtra",
    "pincode": "400607",
    "phone": "011-3988 5050",
    "website": "https://www.lalpathlabs.com",
    "timings": "08:00 AM - 08:00 PM",
    "services": [
      "Path",
      "Pathology"
    ],
    "latitude": 28.628015334741985,
    "longitude": 77.2132072748488,
    "is_nabl_accredited": true,
    "is_cghs_empanelled": true,
    "data_source": "Excel Dataset"
  },
  {
    "name": "Dr Lal PathLabs - SHILLONG LAB",
    "address": "Economic medicall hall, police bazar, Shillong Meghalya.",
    "city": "Shillong",
    "state": "Meghalya",
    "pincode": "",
    "phone": "011-3988 5050",
    "website": "https://www.lalpathlabs.com",
    "timings": "08:00 AM - 08:00 PM",
    "services": [
      "Path",
      "Pathology"
    ],
    "latitude": 28.646239584649503,
    "longitude": 77.171003258183,
    "is_nabl_accredited": true,
    "is_cghs_empanelled": true,
    "data_source": "Excel Dataset"
  },
  {
    "name": "Dr Lal PathLabs - AIZWAL LAB",
    "address": "KT KHUMA BUILDING, HOSPITAL ROAD, DAWRPUI, BARA BAZAR, AIZAWL - 796001 (MIZORAM)",
    "city": "Aizwal",
    "state": "Mizoram",
    "pincode": "796001",
    "phone": "011-3988 5050",
    "website": "https://www.lalpathlabs.com",
    "timings": "08:00 AM - 08:00 PM",
    "services": [
      "Path",
      "Pathology"
    ],
    "latitude": 28.625158987366948,
    "longitude": 77.19705676563723,
    "is_nabl_accredited": true,
    "is_cghs_empanelled": true,
    "data_source": "Excel Dataset"
  },
  {
    "name": "Dr Lal PathLabs - LPL Bhubaneswar",
    "address": "Purabi Plot No. 2084/4837, Vivekananda Marg, (Near Bhubaneswar Municipality and Mousima Temple), Bhubaneswar - 751014",
    "city": "Bhubaneswar",
    "state": "Odisha",
    "pincode": "751014",
    "phone": "011-3988 5050",
    "website": "https://www.lalpathlabs.com",
    "timings": "08:00 AM - 08:00 PM",
    "services": [
      "Path",
      "Pathology"
    ],
    "latitude": 28.63604935147456,
    "longitude": 77.21444984732639,
    "is_nabl_accredited": true,
    "is_cghs_empanelled": true,
    "data_source": "Excel Dataset"
  },
  {
    "name": "Dr Lal PathLabs - Cuttack Lab",
    "address": "OSL TOWER-3,3rd FLOOR KFC BUILDING,BADAMBADI, BUSSTAND,CUTTACK, ODISHA-753012",
    "city": "Cuttack",
    "state": "Odisha",
    "pincode": "753012",
    "phone": "011-3988 5050",
    "website": "https://www.lalpathlabs.com",
    "timings": "08:00 AM - 08:00 PM",
    "services": [
      "Path",
      "Pathology"
    ],
    "latitude": 28.6185378105237,
    "longitude": 77.23436905737891,
    "is_nabl_accredited": true,
    "is_cghs_empanelled": true,
    "data_source": "Excel Dataset"
  },
  {
    "name": "Dr Lal PathLabs - LPL Sambalpur",
    "address": "Ground Floor, Nazrul Plot No 1419 of Sambalpur Mahal, Nayapara, Golebazar, P.O/P,S-Sambalpur-786001, Orissa",
    "city": "Sambalpur",
    "state": "Odisha",
    "pincode": "786001",
    "phone": "011-3988 5050",
    "website": "https://www.lalpathlabs.com",
    "timings": "08:00 AM - 08:00 PM",
    "services": [
      "Path",
      "Pathology"
    ],
    "latitude": 28.625738827532512,
    "longitude": 77.23791393400393,
    "is_nabl_accredited": true,
    "is_cghs_empanelled": true,
    "data_source": "Excel Dataset"
  },
  {
    "name": "Dr Lal PathLabs - AMRITSAR",
    "address": "S.S.Tower,Plot No-59,Shop no-4,Opp-E.N.T Hospital,Majitha Road,Amritsar-143001",
    "city": "Amritsar",
    "state": "Punjab",
    "pincode": "143001",
    "phone": "011-3988 5050",
    "website": "https://www.lalpathlabs.com",
    "timings": "08:00 AM - 08:00 PM",
    "services": [
      "Path",
      "Pathology"
    ],
    "latitude": 28.59778553871567,
    "longitude": 77.2077810239362,
    "is_nabl_accredited": true,
    "is_cghs_empanelled": true,
    "data_source": "Excel Dataset"
  },
  {
    "name": "Dr Lal PathLabs - PSC AMRITSAR",
    "address": "S.C.F ground floor no-31,C Block Market, Ranjit Avenue, Sec-3, Amritsar PIN CODE 143001",
    "city": "Amritsar",
    "state": "Punjab",
    "pincode": "143001",
    "phone": "011-3988 5050",
    "website": "https://www.lalpathlabs.com",
    "timings": "08:00 AM - 08:00 PM",
    "services": [
      "Path",
      "Pathology"
    ],
    "latitude": 28.661619786337926,
    "longitude": 77.21501736352242,
    "is_nabl_accredited": true,
    "is_cghs_empanelled": true,
    "data_source": "Excel Dataset"
  },
  {
    "name": "Dr Lal PathLabs - PSC AMRITSAR 3",
    "address": "S.C.F NO.2374, KOTKANHAYALAL SULTANWIND ROAD NEAR AJIT NAGAR CHOWK Amritsar -143001 punjab",
    "city": "Amritsar",
    "state": "Punjab",
    "pincode": "143001",
    "phone": "011-3988 5050",
    "website": "https://www.lalpathlabs.com",
    "timings": "08:00 AM - 08:00 PM",
    "services": [
      "Path",
      "Pathology"
    ],
    "latitude": 28.625540225747145,
    "longitude": 77.1736761323895,
    "is_nabl_accredited": true,
    "is_cghs_empanelled": true,
    "data_source": "Excel Dataset"
  },
  {
    "name": "Dr Lal PathLabs - PSC Majitha road AMRITSAR",
    "address": "SS tower Plot no 59 majitha road oppo ENT hospital amritsar 143001",
    "city": "Amritsar",
    "state": "Punjab",
    "pincode": "143001",
    "phone": "011-3988 5050",
    "website": "https://www.lalpathlabs.com",
    "timings": "08:00 AM - 08:00 PM",
    "services": [
      "Path",
      "Pathology"
    ],
    "latitude": 28.57760300777682,
    "longitude": 77.17328672233972,
    "is_nabl_accredited": true,
    "is_cghs_empanelled": true,
    "data_source": "Excel Dataset"
  },
  {
    "name": "Dr Lal PathLabs - HOSHIARPUR",
    "address": "Ram Complex,Mohalla Kamalpur,Near-Civil Hospital ,Jalandhar Road,hoshiarpur",
    "city": "Hoshiyarpur",
    "state": "Punjab",
    "pincode": "",
    "phone": "011-3988 5050",
    "website": "https://www.lalpathlabs.com",
    "timings": "08:00 AM - 08:00 PM",
    "services": [
      "Path",
      "Pathology"
    ],
    "latitude": 28.656520459006856,
    "longitude": 77.22447850994142,
    "is_nabl_accredited": true,
    "is_cghs_empanelled": true,
    "data_source": "Excel Dataset"
  },
  {
    "name": "Dr Lal PathLabs - JALANDHAR",
    "address": "1200-1201,Ajit Nagar,Opp-City Garden,Near-Ajit Nagar Gurudwara,Nakodar Chowk",
    "city": "Jalandhar",
    "state": "Punjab",
    "pincode": "",
    "phone": "011-3988 5050",
    "website": "https://www.lalpathlabs.com",
    "timings": "08:00 AM - 08:00 PM",
    "services": [
      "Path",
      "Pathology"
    ],
    "latitude": 28.659933629745396,
    "longitude": 77.20894441483229,
    "is_nabl_accredited": true,
    "is_cghs_empanelled": true,
    "data_source": "Excel Dataset"
  },
  {
    "name": "Dr Lal PathLabs - PSC JALANDHAR 5",
    "address": "1200-1201 Ajit Nagar Nakodar Chownk Near Singh Sabha Gurdwara opp City Centre Garden Jalandhar - 144001",
    "city": "Jalandhar",
    "state": "Punjab",
    "pincode": "144001",
    "phone": "011-3988 5050",
    "website": "https://www.lalpathlabs.com",
    "timings": "08:00 AM - 08:00 PM",
    "services": [
      "Path",
      "Pathology"
    ],
    "latitude": 28.653228115371856,
    "longitude": 77.20066345530489,
    "is_nabl_accredited": true,
    "is_cghs_empanelled": true,
    "data_source": "Excel Dataset"
  },
  {
    "name": "Dr Lal PathLabs - LUDHIANA - LAB",
    "address": "12 - C, SARABHA NAGAR, LUDHIANA",
    "city": "Ludhiana",
    "state": "Punjab",
    "pincode": "",
    "phone": "011-3988 5050",
    "website": "https://www.lalpathlabs.com",
    "timings": "08:00 AM - 08:00 PM",
    "services": [
      "Path + Radio",
      "XRAY",
      "ECG",
      "USG",
      "Pathology"
    ],
    "latitude": 28.616635305252696,
    "longitude": 77.19010496560269,
    "is_nabl_accredited": true,
    "is_cghs_empanelled": true,
    "data_source": "Excel Dataset"
  },
  {
    "name": "Dr Lal PathLabs - PSC MOHALI",
    "address": "booth no 52 phase 7 Mohali PIN CODE 160061",
    "city": "Mohali",
    "state": "Punjab",
    "pincode": "160061",
    "phone": "011-3988 5050",
    "website": "https://www.lalpathlabs.com",
    "timings": "08:00 AM - 08:00 PM",
    "services": [
      "Path",
      "Pathology"
    ],
    "latitude": 28.609032764991714,
    "longitude": 77.22044628319884,
    "is_nabl_accredited": true,
    "is_cghs_empanelled": true,
    "data_source": "Excel Dataset"
  },
  {
    "name": "Dr Lal PathLabs - PATHANKOT",
    "address": "Ground Floor,MK2 Complex,Near-Kaalu Ka Petrol Pump,Dalhousie Road",
    "city": "Pathankot",
    "state": "Punjab",
    "pincode": "",
    "phone": "011-3988 5050",
    "website": "https://www.lalpathlabs.com",
    "timings": "08:00 AM - 08:00 PM",
    "services": [
      "Path",
      "Pathology"
    ],
    "latitude": 28.570336979712025,
    "longitude": 77.22432756285937,
    "is_nabl_accredited": true,
    "is_cghs_empanelled": true,
    "data_source": "Excel Dataset"
  },
  {
    "name": "Dr Lal PathLabs - PATIALA LAB-2",
    "address": "B-4/108, SCO No-7, 9 Rambagh, Leela Bhawan Chowk, Opp. New Gopal Sweets Patiala-147001 |L92",
    "city": "Patiala",
    "state": "Punjab",
    "pincode": "147001",
    "phone": "011-3988 5050",
    "website": "https://www.lalpathlabs.com",
    "timings": "08:00 AM - 08:00 PM",
    "services": [
      "Path",
      "Pathology"
    ],
    "latitude": 28.620175154992133,
    "longitude": 77.1937776345055,
    "is_nabl_accredited": true,
    "is_cghs_empanelled": true,
    "data_source": "Excel Dataset"
  },
  {
    "name": "Dr Lal PathLabs - AJMER LAB",
    "address": "348, Todermal Marg, Near Revennue Board Office, Ajmer-305001.",
    "city": "Ajmer",
    "state": "Rajisthan",
    "pincode": "305001",
    "phone": "011-3988 5050",
    "website": "https://www.lalpathlabs.com",
    "timings": "08:00 AM - 08:00 PM",
    "services": [
      "Path",
      "Pathology"
    ],
    "latitude": 28.59074770290165,
    "longitude": 77.17769107719474,
    "is_nabl_accredited": true,
    "is_cghs_empanelled": true,
    "data_source": "Excel Dataset"
  },
  {
    "name": "Dr Lal PathLabs - LPL Alwar",
    "address": "108, 2ND FLOOR, PRAKASH SADAN, RAMGUNJ BAZAR, ALWAR - 301001 (RAJ)",
    "city": "Alwar",
    "state": "Rajisthan",
    "pincode": "301001",
    "phone": "011-3988 5050",
    "website": "https://www.lalpathlabs.com",
    "timings": "08:00 AM - 08:00 PM",
    "services": [
      "Path",
      "Pathology"
    ],
    "latitude": 28.628235773131582,
    "longitude": 77.17840227424517,
    "is_nabl_accredited": true,
    "is_cghs_empanelled": true,
    "data_source": "Excel Dataset"
  },
  {
    "name": "Dr Lal PathLabs - JAIPUR-2",
    "address": "UNIT NO. A-34,GRD FLOOR, PRABHU MARG, RAJA PARK, TILAK NAGAR, CENTER POINT, JAIPUR--302004, RAJASTHAN",
    "city": "Jaipur",
    "state": "Rajisthan",
    "pincode": "302004",
    "phone": "011-3988 5050",
    "website": "https://www.lalpathlabs.com",
    "timings": "08:00 AM - 08:00 PM",
    "services": [
      "Path + Radio",
      "XRAY",
      "ECG",
      "USG",
      "Pathology"
    ],
    "latitude": 26.89693742030294,
    "longitude": 75.75682386313244,
    "is_nabl_accredited": true,
    "is_cghs_empanelled": true,
    "data_source": "Excel Dataset"
  },
  {
    "name": "Dr Lal PathLabs - JODHPUR LAB",
    "address": "Plot no. E-123, Shastri Nagar, Opp. Manidhari Hospital, Residency Road, Jodhpur- 342001, Raj.",
    "city": "Jodhpur",
    "state": "Rajisthan",
    "pincode": "342001",
    "phone": "011-3988 5050",
    "website": "https://www.lalpathlabs.com",
    "timings": "08:00 AM - 08:00 PM",
    "services": [
      "Path",
      "Pathology"
    ],
    "latitude": 28.64348284404649,
    "longitude": 77.17437835711819,
    "is_nabl_accredited": true,
    "is_cghs_empanelled": true,
    "data_source": "Excel Dataset"
  },
  {
    "name": "Dr Lal PathLabs - KOTA LAB",
    "address": "Lodha Premises, 1-B-32, Talwandi,RHB, Near Talwandi circle, Kota- 324005",
    "city": "Kota",
    "state": "Rajisthan",
    "pincode": "324005",
    "phone": "011-3988 5050",
    "website": "https://www.lalpathlabs.com",
    "timings": "08:00 AM - 08:00 PM",
    "services": [
      "Path + Radio",
      "XRAY",
      "USG",
      "Pathology"
    ],
    "latitude": 28.643851454712454,
    "longitude": 77.25045535239131,
    "is_nabl_accredited": true,
    "is_cghs_empanelled": true,
    "data_source": "Excel Dataset"
  },
  {
    "name": "Dr Lal PathLabs - LPL UDAIPUR AMOLAK",
    "address": "Amolak Diagnostics,24-C,Madhuban,Near Chetak Circle,Udaipur,Rajasthan,Pin: 313001",
    "city": "Udaipur",
    "state": "Rajisthan",
    "pincode": "313001",
    "phone": "011-3988 5050",
    "website": "https://www.lalpathlabs.com",
    "timings": "08:00 AM - 08:00 PM",
    "services": [
      "Path + Radio",
      "ECG",
      "Pathology"
    ],
    "latitude": 28.630040455746254,
    "longitude": 77.25132854466786,
    "is_nabl_accredited": true,
    "is_cghs_empanelled": true,
    "data_source": "Excel Dataset"
  },
  {
    "name": "Dr Lal PathLabs - HIRAN MAGRI LAB",
    "address": "RHB COLONY, NEAR SHASTRI MISHTHAN BHANDAR, OPP. NARAYAN SEVA SANSTHAN, SEC - 5, HIRAN MAGARI, UDAIPUR - 313002 (RAJ)",
    "city": "Udaipur",
    "state": "Rajisthan",
    "pincode": "313002",
    "phone": "011-3988 5050",
    "website": "https://www.lalpathlabs.com",
    "timings": "08:00 AM - 08:00 PM",
    "services": [
      "Path + Radio",
      "XRAY",
      "ECG",
      "Pathology"
    ],
    "latitude": 28.632792013529073,
    "longitude": 77.19848464659442,
    "is_nabl_accredited": true,
    "is_cghs_empanelled": true,
    "data_source": "Excel Dataset"
  },
  {
    "name": "Dr Lal PathLabs - LPL HYDERABAD",
    "address": "Plot No 22,Ayyappa Arcade,Janardhan Hills,Gachibowli,Serilingampalli,Hyderabad-32",
    "city": "Hyderabad",
    "state": "Telangana",
    "pincode": "",
    "phone": "011-3988 5050",
    "website": "https://www.lalpathlabs.com",
    "timings": "08:00 AM - 08:00 PM",
    "services": [
      "Path",
      "Pathology"
    ],
    "latitude": 17.378096194979786,
    "longitude": 78.49822008600432,
    "is_nabl_accredited": true,
    "is_cghs_empanelled": true,
    "data_source": "Excel Dataset"
  },
  {
    "name": "Dr Lal PathLabs - TRIPURA - LAB ( Agartala)",
    "address": "P.B. Das Memorial Diagnostic Centre, Bidurkarta, Chowmuhuni, Agartala - 799001",
    "city": "Agartala",
    "state": "Tripura",
    "pincode": "799001",
    "phone": "011-3988 5050",
    "website": "https://www.lalpathlabs.com",
    "timings": "08:00 AM - 08:00 PM",
    "services": [
      "Path",
      "Pathology"
    ],
    "latitude": 28.62986100758507,
    "longitude": 77.17190614701208,
    "is_nabl_accredited": true,
    "is_cghs_empanelled": true,
    "data_source": "Excel Dataset"
  },
  {
    "name": "Dr Lal PathLabs - PSC AGRA",
    "address": "8, CIVIL LINES, CHURCH ROAD ,NR. ST. PAUL SCHOOL, AGRA ,U.P.-282001",
    "city": "Agra",
    "state": "Uttar Pradesh",
    "pincode": "282001",
    "phone": "011-3988 5050",
    "website": "https://www.lalpathlabs.com",
    "timings": "08:00 AM - 08:00 PM",
    "services": [
      "Path",
      "Pathology"
    ],
    "latitude": 28.627855761977617,
    "longitude": 77.21794620513256,
    "is_nabl_accredited": true,
    "is_cghs_empanelled": true,
    "data_source": "Excel Dataset"
  },
  {
    "name": "Dr Lal PathLabs - ALIGARH",
    "address": "3/168 Kushwah Complex Opp- OBC bank, Ramghat Road Aligarh --202001",
    "city": "Aligarh",
    "state": "Uttar Pradesh",
    "pincode": "202001",
    "phone": "011-3988 5050",
    "website": "https://www.lalpathlabs.com",
    "timings": "08:00 AM - 08:00 PM",
    "services": [
      "Path",
      "Pathology"
    ],
    "latitude": 28.662869301953993,
    "longitude": 77.19861787292824,
    "is_nabl_accredited": true,
    "is_cghs_empanelled": true,
    "data_source": "Excel Dataset"
  },
  {
    "name": "Dr Lal PathLabs - ALLAHABAD LAB-2",
    "address": "29-B, Eklavya Tower, P D Tandon Marg, Vivekanand Chauraha, Civil Lines (Near Tanishq Jwelary), Allahabad, Uttar Pradesh-211001",
    "city": "Allahabad",
    "state": "Uttar Pradesh",
    "pincode": "211001",
    "phone": "011-3988 5050",
    "website": "https://www.lalpathlabs.com",
    "timings": "08:00 AM - 08:00 PM",
    "services": [
      "Path",
      "Pathology"
    ],
    "latitude": 28.627204462759703,
    "longitude": 77.24937745148988,
    "is_nabl_accredited": true,
    "is_cghs_empanelled": true,
    "data_source": "Excel Dataset"
  },
  {
    "name": "Dr Lal PathLabs - AZAMGARH LAB",
    "address": "Shop No. 120 & 121, Civil Lines, opposite civil court, Near Bus Stand Azamgarh - 276001",
    "city": "Azamgarh",
    "state": "Uttar Pradesh",
    "pincode": "276001",
    "phone": "011-3988 5050",
    "website": "https://www.lalpathlabs.com",
    "timings": "08:00 AM - 08:00 PM",
    "services": [
      "Path",
      "Pathology"
    ],
    "latitude": 28.651605131146642,
    "longitude": 77.20569955299881,
    "is_nabl_accredited": true,
    "is_cghs_empanelled": true,
    "data_source": "Excel Dataset"
  },
  {
    "name": "Dr Lal PathLabs - BAREILLY LAB",
    "address": "Jai Hind Kothi Macnair road (Prem Nagar), BAREILLY -243001, U.P",
    "city": "Bareilly",
    "state": "Uttar Pradesh",
    "pincode": "243001",
    "phone": "011-3988 5050",
    "website": "https://www.lalpathlabs.com",
    "timings": "08:00 AM - 08:00 PM",
    "services": [
      "Path",
      "Pathology"
    ],
    "latitude": 28.591485408910366,
    "longitude": 77.20966822397762,
    "is_nabl_accredited": true,
    "is_cghs_empanelled": true,
    "data_source": "Excel Dataset"
  },
  {
    "name": "Dr Lal PathLabs - DEORIA LAB",
    "address": "Dr. Lalpath labs, Rani ghati khoti , Near J.K. Mittal Academy, Salempur road ,Deoria 274001.",
    "city": "Deoria",
    "state": "Uttar Pradesh",
    "pincode": "274001",
    "phone": "011-3988 5050",
    "website": "https://www.lalpathlabs.com",
    "timings": "08:00 AM - 08:00 PM",
    "services": [
      "Path",
      "Pathology"
    ],
    "latitude": 28.626409942699766,
    "longitude": 77.17136040376613,
    "is_nabl_accredited": true,
    "is_cghs_empanelled": true,
    "data_source": "Excel Dataset"
  },
  {
    "name": "Dr Lal PathLabs - FAIZABAD LAB",
    "address": "UGF-MUKUT COMPLEX, RIKUBGANJ, FAIZABAD - 224001",
    "city": "Faizabad",
    "state": "Uttar Pradesh",
    "pincode": "224001",
    "phone": "011-3988 5050",
    "website": "https://www.lalpathlabs.com",
    "timings": "08:00 AM - 08:00 PM",
    "services": [
      "Path",
      "Pathology"
    ],
    "latitude": 28.59443628138989,
    "longitude": 77.19164889726927,
    "is_nabl_accredited": true,
    "is_cghs_empanelled": true,
    "data_source": "Excel Dataset"
  },
  {
    "name": "Dr Lal PathLabs - GORAKHPUR -LAB",
    "address": "170/B, Park Road, Civil Lines 2, Gorakhpur - 273001, U.P",
    "city": "Gorakhpur",
    "state": "Uttar Pradesh",
    "pincode": "273001",
    "phone": "011-3988 5050",
    "website": "https://www.lalpathlabs.com",
    "timings": "08:00 AM - 08:00 PM",
    "services": [
      "Path",
      "Pathology"
    ],
    "latitude": 28.609694193843026,
    "longitude": 77.1885035174655,
    "is_nabl_accredited": true,
    "is_cghs_empanelled": true,
    "data_source": "Excel Dataset"
  },
  {
    "name": "Dr Lal PathLabs - PSC GORAKHPUR",
    "address": "10, Park Road , opposite Sitapur eye Hospital, Civil Line Gorakhpur",
    "city": "Gorakhpur",
    "state": "Uttar Pradesh",
    "pincode": "",
    "phone": "011-3988 5050",
    "website": "https://www.lalpathlabs.com",
    "timings": "08:00 AM - 08:00 PM",
    "services": [
      "Path",
      "Pathology"
    ],
    "latitude": 28.660129657945117,
    "longitude": 77.20980062448152,
    "is_nabl_accredited": true,
    "is_cghs_empanelled": true,
    "data_source": "Excel Dataset"
  },
  {
    "name": "Dr Lal PathLabs - JHANSI LAB",
    "address": "R/0 414/A, Veeragana Nagar, Jhansi Sadar Bazar S.O, Jhansi- 284001, UP",
    "city": "Jhansi",
    "state": "Uttar Pradesh",
    "pincode": "284001",
    "phone": "011-3988 5050",
    "website": "https://www.lalpathlabs.com",
    "timings": "08:00 AM - 08:00 PM",
    "services": [
      "Path",
      "Pathology"
    ],
    "latitude": 28.638030508749605,
    "longitude": 77.21345085413202,
    "is_nabl_accredited": true,
    "is_cghs_empanelled": true,
    "data_source": "Excel Dataset"
  },
  {
    "name": "Dr Lal PathLabs - KANPUR - LAB",
    "address": "117/H-2/618 -A,Pandu Nagar, Kanpur- 208005, U.P",
    "city": "Kanpur",
    "state": "Uttar Pradesh",
    "pincode": "208005",
    "phone": "011-3988 5050",
    "website": "https://www.lalpathlabs.com",
    "timings": "08:00 AM - 08:00 PM",
    "services": [
      "Path",
      "Pathology"
    ],
    "latitude": 26.47545806598673,
    "longitude": 80.3808900674386,
    "is_nabl_accredited": true,
    "is_cghs_empanelled": true,
    "data_source": "Excel Dataset"
  },
  {
    "name": "Dr Lal PathLabs - PSC MAHANAGAR",
    "address": "8,MANDIR MARG, MAHANAGAR EXT.LUCKNOW-226006",
    "city": "Lucknow",
    "state": "Uttar Pradesh",
    "pincode": "226006",
    "phone": "011-3988 5050",
    "website": "https://www.lalpathlabs.com",
    "timings": "08:00 AM - 08:00 PM",
    "services": [
      "Path",
      "Pathology"
    ],
    "latitude": 26.85344759956339,
    "longitude": 80.94819589623081,
    "is_nabl_accredited": true,
    "is_cghs_empanelled": true,
    "data_source": "Excel Dataset"
  },
  {
    "name": "Dr Lal PathLabs - PSC MEERUT",
    "address": "5/5 Begum Pul Road, opp Jagdish s=Sharan Rajvanshi Kanya Inter College , Meerut, UP  250001",
    "city": "Meerut",
    "state": "Uttar Pradesh",
    "pincode": "250001",
    "phone": "011-3988 5050",
    "website": "https://www.lalpathlabs.com",
    "timings": "08:00 AM - 08:00 PM",
    "services": [
      "Path",
      "Pathology"
    ],
    "latitude": 28.629278018609085,
    "longitude": 77.18624590785763,
    "is_nabl_accredited": true,
    "is_cghs_empanelled": true,
    "data_source": "Excel Dataset"
  },
  {
    "name": "Dr Lal PathLabs - MORADABAD LAB",
    "address": "G3, Chaddha complex, GMD Road, Moradabad. U.P. -244001",
    "city": "Moradabad",
    "state": "Uttar Pradesh",
    "pincode": "244001",
    "phone": "011-3988 5050",
    "website": "https://www.lalpathlabs.com",
    "timings": "08:00 AM - 08:00 PM",
    "services": [
      "Path",
      "Pathology"
    ],
    "latitude": 28.64297083223298,
    "longitude": 77.24254937258237,
    "is_nabl_accredited": true,
    "is_cghs_empanelled": true,
    "data_source": "Excel Dataset"
  },
  {
    "name": "Dr Lal PathLabs - SAHARANPUR LAB",
    "address": "2/880/37, F.Floor, Dr. Bheem rao ambedkar marg, court road, Saharanpur,UP 247001",
    "city": "Saharanpur",
    "state": "Uttar Pradesh",
    "pincode": "247001",
    "phone": "011-3988 5050",
    "website": "https://www.lalpathlabs.com",
    "timings": "08:00 AM - 08:00 PM",
    "services": [
      "Path",
      "Pathology"
    ],
    "latitude": 28.573474306339282,
    "longitude": 77.24240904828636,
    "is_nabl_accredited": true,
    "is_cghs_empanelled": true,
    "data_source": "Excel Dataset"
  },
  {
    "name": "Dr Lal PathLabs - PSC VARANASI",
    "address": "38.SHASHTRI NAGAR , SIGRA, VARANASI",
    "city": "Varanasi",
    "state": "Uttar Pradesh",
    "pincode": "",
    "phone": "011-3988 5050",
    "website": "https://www.lalpathlabs.com",
    "timings": "08:00 AM - 08:00 PM",
    "services": [
      "Path",
      "Pathology"
    ],
    "latitude": 28.59452048570273,
    "longitude": 77.25536235746253,
    "is_nabl_accredited": true,
    "is_cghs_empanelled": true,
    "data_source": "Excel Dataset"
  },
  {
    "name": "Dr Lal PathLabs - LPL VARANASI-1",
    "address": "Nidan Kendra Godowlia, Varanasi, Uttar Pradesh-221010",
    "city": "Varanasi",
    "state": "Uttar Pradesh",
    "pincode": "221010",
    "phone": "011-3988 5050",
    "website": "https://www.lalpathlabs.com",
    "timings": "08:00 AM - 08:00 PM",
    "services": [
      "Path",
      "Pathology"
    ],
    "latitude": 28.587118125274277,
    "longitude": 77.23662451225287,
    "is_nabl_accredited": true,
    "is_cghs_empanelled": true,
    "data_source": "Excel Dataset"
  },
  {
    "name": "Dr Lal PathLabs - DEHRADUN LAB",
    "address": "Complex- Khasra No. 1281, Near Surbhi Hotel, Chakrata Road, Adjoining- Uttarakhand Gramid Bank, Dehradun-248001",
    "city": "Dehradun",
    "state": "Uttrakhand",
    "pincode": "248001",
    "phone": "011-3988 5050",
    "website": "https://www.lalpathlabs.com",
    "timings": "08:00 AM - 08:00 PM",
    "services": [
      "Path",
      "Pathology"
    ],
    "latitude": 28.593807222896825,
    "longitude": 77.16674453402933,
    "is_nabl_accredited": true,
    "is_cghs_empanelled": true,
    "data_source": "Excel Dataset"
  },
  {
    "name": "Dr Lal PathLabs - HALDWANI LAB",
    "address": "Opp Bhatiya Bal Vidya Mandir, Kaladungi Road, Haldwani - 263139, Uttrakhand",
    "city": "Haldwani",
    "state": "Uttrakhand",
    "pincode": "263139",
    "phone": "011-3988 5050",
    "website": "https://www.lalpathlabs.com",
    "timings": "08:00 AM - 08:00 PM",
    "services": [
      "Path",
      "Pathology"
    ],
    "latitude": 28.61134835077643,
    "longitude": 77.2072549556147,
    "is_nabl_accredited": true,
    "is_cghs_empanelled": true,
    "data_source": "Excel Dataset"
  },
  {
    "name": "Dr Lal PathLabs - PSC-Haldwani",
    "address": "Psc Haldwani | PSC | Dr. Lal PathLabs Ltd. | Haldwani Diagnostic Centre Sahukara Line, Opp. Ss Jeena Base Hospital, Haldwani, Nainital-263139, Uttarakhand Haldwani - 263139",
    "city": "Haldwani",
    "state": "Uttrakhand",
    "pincode": "263139",
    "phone": "011-3988 5050",
    "website": "https://www.lalpathlabs.com",
    "timings": "08:00 AM - 08:00 PM",
    "services": [
      "Path",
      "Pathology"
    ],
    "latitude": 28.595200620123276,
    "longitude": 77.20435102097731,
    "is_nabl_accredited": true,
    "is_cghs_empanelled": true,
    "data_source": "Excel Dataset"
  },
  {
    "name": "Dr Lal PathLabs - HARIDWAR LAB",
    "address": "Plot No 9 ABC Ground floor Shankar Ashram, Opp. Hotel Classic residency / Mohanji Puriwale Ranipur road , Haridwar-U.K.-249401.",
    "city": "Haridwar",
    "state": "Uttrakhand",
    "pincode": "249401",
    "phone": "011-3988 5050",
    "website": "https://www.lalpathlabs.com",
    "timings": "08:00 AM - 08:00 PM",
    "services": [
      "Path",
      "Pathology"
    ],
    "latitude": 28.620151593875832,
    "longitude": 77.16483465001393,
    "is_nabl_accredited": true,
    "is_cghs_empanelled": true,
    "data_source": "Excel Dataset"
  },
  {
    "name": "Dr Lal PathLabs - DURGAPUR LAB",
    "address": "Pinnacle Infotech Building, 1st Floor, Shahid Khudiram Sarani, City Centre, (Opposite The City Residency), Durgpaur, Burdwan, West Bengal, Pin - 713216",
    "city": "Durgapur",
    "state": "West Bengal",
    "pincode": "713216",
    "phone": "011-3988 5050",
    "website": "https://www.lalpathlabs.com",
    "timings": "08:00 AM - 08:00 PM",
    "services": [
      "Path",
      "Pathology"
    ],
    "latitude": 28.591866330641093,
    "longitude": 77.2208009548289,
    "is_nabl_accredited": true,
    "is_cghs_empanelled": true,
    "data_source": "Excel Dataset"
  },
  {
    "name": "Dr Lal PathLabs - HOWRAH-2",
    "address": "Krishna Enclave 1st Floor, 2/1, Bhajan Lal Lohiya Lane, Howrah, West Bengal-711101",
    "city": "Howrah",
    "state": "West Bengal",
    "pincode": "711101",
    "phone": "011-3988 5050",
    "website": "https://www.lalpathlabs.com",
    "timings": "08:00 AM - 08:00 PM",
    "services": [
      "Path",
      "Pathology"
    ],
    "latitude": 28.613254644490222,
    "longitude": 77.16095617552043,
    "is_nabl_accredited": true,
    "is_cghs_empanelled": true,
    "data_source": "Excel Dataset"
  },
  {
    "name": "Dr Lal PathLabs - KOLKATA LAB-3( Tegoria )",
    "address": "71 Teghoria, VIP Rd, Siddhi Aptm, Kolkata-700 059, W.B.",
    "city": "Kolkata",
    "state": "West Bengal",
    "pincode": "",
    "phone": "011-3988 5050",
    "website": "https://www.lalpathlabs.com",
    "timings": "08:00 AM - 08:00 PM",
    "services": [
      "Path",
      "Pathology"
    ],
    "latitude": 22.54800412220698,
    "longitude": 88.35694617840021,
    "is_nabl_accredited": true,
    "is_cghs_empanelled": true,
    "data_source": "Excel Dataset"
  },
  {
    "name": "Dr Lal PathLabs - LPL Medicave Sinthi",
    "address": "48B, B.T. Road, Sinthimore, Kolkata - 700050",
    "city": "Kolkata",
    "state": "West Bengal",
    "pincode": "700050",
    "phone": "011-3988 5050",
    "website": "https://www.lalpathlabs.com",
    "timings": "08:00 AM - 08:00 PM",
    "services": [
      "Path + Radio",
      "XRAY",
      "ECG",
      "USG",
      "ECHO",
      "TMT",
      "PFT",
      "AUDIOMETRY",
      "Pathology"
    ],
    "latitude": 22.616156998984533,
    "longitude": 88.3380974265316,
    "is_nabl_accredited": true,
    "is_cghs_empanelled": true,
    "data_source": "Excel Dataset"
  },
  {
    "name": "Dr Lal PathLabs - LPL BARASAT ( Medicave )",
    "address": "12 No. Rail gate, Noapara Barasat, Kolkata - 700124",
    "city": "Kolkata",
    "state": "West Bengal",
    "pincode": "700124",
    "phone": "011-3988 5050",
    "website": "https://www.lalpathlabs.com",
    "timings": "08:00 AM - 08:00 PM",
    "services": [
      "Path + Radio",
      "XRAY",
      "ECG",
      "USG",
      "ECHO",
      "TMT",
      "Pathology"
    ],
    "latitude": 22.59684599436967,
    "longitude": 88.40310640236426,
    "is_nabl_accredited": true,
    "is_cghs_empanelled": true,
    "data_source": "Excel Dataset"
  },
  {
    "name": "Dr Lal PathLabs - LPL Barrack pore",
    "address": "8 (4/D), Barasat Road, Nonachandan Pukur, Barrack pore, Kolkata - 700122",
    "city": "Kolkata",
    "state": "West Bengal",
    "pincode": "700122",
    "phone": "011-3988 5050",
    "website": "https://www.lalpathlabs.com",
    "timings": "08:00 AM - 08:00 PM",
    "services": [
      "Path + Radio",
      "XRAY",
      "ECG",
      "USG",
      "Pathology"
    ],
    "latitude": 22.613817943457594,
    "longitude": 88.38019247239029,
    "is_nabl_accredited": true,
    "is_cghs_empanelled": true,
    "data_source": "Excel Dataset"
  },
  {
    "name": "Dr Lal PathLabs - PSC PARKCIRCUS",
    "address": "P-258 DARGA ROAD, Kolkata",
    "city": "Kolkata",
    "state": "West Bengal",
    "pincode": "",
    "phone": "011-3988 5050",
    "website": "https://www.lalpathlabs.com",
    "timings": "08:00 AM - 08:00 PM",
    "services": [
      "Path",
      "Pathology"
    ],
    "latitude": 22.54124383740098,
    "longitude": 88.31862287582678,
    "is_nabl_accredited": true,
    "is_cghs_empanelled": true,
    "data_source": "Excel Dataset"
  },
  {
    "name": "Dr Lal PathLabs - PSC TALTALA",
    "address": "11A,PURANCHAND NAHAR AVENUE,TALTALA,KOLKATA-700013.",
    "city": "Kolkata",
    "state": "West Bengal",
    "pincode": "700013",
    "phone": "011-3988 5050",
    "website": "https://www.lalpathlabs.com",
    "timings": "08:00 AM - 08:00 PM",
    "services": [
      "Path",
      "Pathology"
    ],
    "latitude": 22.58917893107558,
    "longitude": 88.32600615302475,
    "is_nabl_accredited": true,
    "is_cghs_empanelled": true,
    "data_source": "Excel Dataset"
  },
  {
    "name": "Dr Lal PathLabs - LPL Krishna Nagar",
    "address": "97/1 Station Approach Road, First Floor, Trinath Lodge, Beledanga, Krishna Nagar, Pin code 741101, Nadia, West Bengal",
    "city": "Krishna Nagar",
    "state": "West Bengal",
    "pincode": "741101",
    "phone": "011-3988 5050",
    "website": "https://www.lalpathlabs.com",
    "timings": "08:00 AM - 08:00 PM",
    "services": [
      "Path",
      "Pathology"
    ],
    "latitude": 28.59358890632264,
    "longitude": 77.20369763192177,
    "is_nabl_accredited": true,
    "is_cghs_empanelled": true,
    "data_source": "Excel Dataset"
  },
  {
    "name": "Dr Lal PathLabs - SILIGURI",
    "address": "175, 1St, Floor, Unity Building, Sevoke Road (Near Kfc Restaurant), Siliguri, West Bengal-734001",
    "city": "Siliguri",
    "state": "West Bengal",
    "pincode": "734001",
    "phone": "011-3988 5050",
    "website": "https://www.lalpathlabs.com",
    "timings": "08:00 AM - 08:00 PM",
    "services": [
      "Path",
      "Pathology"
    ],
    "latitude": 28.62785861645398,
    "longitude": 77.22013875272376,
    "is_nabl_accredited": true,
    "is_cghs_empanelled": true,
    "data_source": "Excel Dataset"
  },
  {
    "name": "Dr Lal PathLabs - PSC RELIEF ROAD",
    "address": "DR.LAL PATH LABS LTD, PIR MOHAMADSHA MANSION,GHEEKANTA CHAR RASTA,RELIEF ROAD,AHMEDABAD-380001",
    "city": "WEST 1",
    "state": "AHMEDABAD",
    "pincode": "380001",
    "phone": "011-3988 5050",
    "website": "https://www.lalpathlabs.com",
    "timings": "08:00 AM - 08:00 PM",
    "services": [
      "Path",
      "Pathology"
    ],
    "latitude": 28.593829096960828,
    "longitude": 77.19344701612249,
    "is_nabl_accredited": true,
    "is_cghs_empanelled": true,
    "data_source": "Excel Dataset"
  }
]